"page_url","location_name","street_address","city","state","zip","country_code","store_number","phone","location_type","latitude","longitude","locator_domain","hours_of_operation","raw_address"
"https://www.radissonhotels.com/en-us/hotels/park-inn-aberdeen","Park Inn by Radisson Aberdeen","1 Justice Mill Lane","Aberdeen","<MISSING>","AB11 6EQ","United Kingdom","ABZPD","+ 44 (0) 1224 592 999","Hotel","57.14277","-2.10871","https://www.radissonhotels.com/en-us/destination","<MISSING>","<MISSING>"
"https://www.radissonhotels.com/en-us/hotels/park-inn-sochi-city-centre","Park Inn by Radisson Sochi City Centre","56 Gorkogo Street","Sochi","<MISSING>","354024","Russian Federation","AERPD","+7 (862) 2968228","Hotel","43.5906754","39.7274246","https://www.radissonhotels.com/en-us/destination","<MISSING>","<MISSING>"
"https://www.radissonhotels.com/en-us/hotels/park-inn-rosa-khutor","Park Inn by Radisson Rosa Khutor","5 Lavanda Embankment","Sochi","<MISSING>","354392","Russian Federation","AERPK","+7 (862) 243 1377","Hotel","43.6714745","40.294384","https://www.radissonhotels.com/en-us/destination","<MISSING>","<MISSING>"
"https://www.radissonhotels.com/en-us/hotels/park-inn-amsterdam-city","Park Inn by Radisson Amsterdam City West","La Guardiaweg 59","Amsterdam","<MISSING>","1043 DE","Netherlands","AMSPD","+31 (0) 20 242 00 00","Hotel","52.3901367","4.842565","https://www.radissonhotels.com/en-us/destination","<MISSING>","<MISSING>"
"https://www.radissonhotels.com/en-us/hotels/park-inn-amsterdam-schiphol-airport","Park Inn by Radisson Amsterdam Airport Schiphol","Beechavenue 142-160, Schiphol-Rijk","Amsterdam Airport Schiphol","<MISSING>","1119 PR","Netherlands","AMSPQ","+31 (0) 20 700 3800","Hotel","52.2790947","4.744116","https://www.radissonhotels.com/en-us/destination","<MISSING>","<MISSING>"
"https://www.radissonhotels.com/en-us/hotels/park-inn-ankara-cankaya","Park Inn by Radisson Ankara Cankaya","Alexsander Dubcek cad. no: 7","Ankara","<MISSING>","<MISSING>","Turkey","ANKPD","+ 90 (312) 439 7000","Hotel","39.8647041","32.8532677","https://www.radissonhotels.com/en-us/destination","<MISSING>","<MISSING>"
"https://www.radissonhotels.com/en-us/hotels/park-inn-antwerp-berchem","Park Inn by Radisson Antwerp Berchem","Borsbeeksebrug 34","Antwerp","<MISSING>","B-2600","Belgium","ANRPB","+32 3 432 77 00","Hotel","51.2003365","4.434408","https://www.radissonhotels.com/en-us/destination","<MISSING>","<MISSING>"
"https://www.radissonhotels.com/en-us/hotels/park-inn-antwerp","Park Inn by Radisson Antwerp","Koningin Astridplein","Antwerp","<MISSING>","2018","Belgium","ANRPD","+32 3 202 31 70","Hotel","51.2183876","4.421988","https://www.radissonhotels.com/en-us/destination","<MISSING>","<MISSING>"
"https://www.radissonhotels.com/en-us/hotels/park-inn-astrakhan","Park Inn by Radisson, Astrakhan","Anri Barbusa Street, 29","Astrakhan","<MISSING>","414056","Russian Federation","ASFPD","+ 7 (851) 2 290 120","Hotel","46.36171","48.0572853","https://www.radissonhotels.com/en-us/destination","<MISSING>","<MISSING>"
"https://www.radissonhotels.com/en-us/hotels/park-inn-abu-dhabi-yas-island","Park Inn by Radisson Abu Dhabi, Yas Island","Yas Island","Abu Dhabi","<MISSING>","93725","United Arab Emirates","AUHPY","+971 (2) 6562222","Hotel","24.4678535","54.5986671","https://www.radissonhotels.com/en-us/destination","<MISSING>","<MISSING>"
"https://www.radissonhotels.com/en-us/hotels/park-inn-baku","Park Inn by Radisson Baku Hotel","Azadlig Avenue 1","Baku","<MISSING>","AZ 1000","Azerbaijan","BAKPD","+994 12 490 6000","Hotel","40.3712845","49.8488","https://www.radissonhotels.com/en-us/destination","<MISSING>","<MISSING>"
"https://www.radissonhotels.com/en-us/hotels/park-inn-berlin-alexanderplatz","Park Inn by Radisson Berlin Alexanderplatz","Alexanderplatz 7","Berlin","<MISSING>","10178","Germany","BERP1","+49 (30) 2389 0","Hotel","52.5228539","13.4128695","https://www.radissonhotels.com/en-us/destination","<MISSING>","<MISSING>"
"https://www.radissonhotels.com/en-us/hotels/park-inn-belfast","Park Inn by Radisson Belfast","4 Clarence Street West","Belfast","<MISSING>","BT2 7GP","United Kingdom","BFSPD","+44 (28) 9067 7700","Hotel","54.594017","-5.931947","https://www.radissonhotels.com/en-us/destination","<MISSING>","<MISSING>"
"https://www.radissonhotels.com/en-us/hotels/park-inn-birmingham-walsall","Park Inn by Radisson Birmingham Walsall","Bescot Crescent, Walsall","Birmingham","<MISSING>","WS1 4SE","United Kingdom","BHXP2","+44 1922 639 100","Hotel","52.56439","-1.98951","https://www.radissonhotels.com/en-us/destination","<MISSING>","<MISSING>"
"https://www.radissonhotels.com/en-us/hotels/park-inn-brussels-midi","Park Inn by Radisson Brussels Midi","Place Marcel Broodthaers Plein 3","Brussels","<MISSING>","B-1060","Belgium","BRUPM","+32 (0) 2 535 14 00","Hotel","50.83558","4.338934","https://www.radissonhotels.com/en-us/destination","<MISSING>","<MISSING>"
"https://www.radissonhotels.com/en-us/hotels/park-inn-brussels-airport","Park Inn by Radisson Brussels Airport","Grensstraat 3, Diegem","Brussels","<MISSING>","1831","Belgium","BRUPQ","+32 (0) 2 302 75 00","Hotel","50.88286","4.449076","https://www.radissonhotels.com/en-us/destination","<MISSING>","<MISSING>"
"https://www.radissonhotels.com/en-us/hotels/park-inn-bratislava-danube","Park Inn by Radisson Danube Bratislava","Rybne Namestie 1","Bratislava","<MISSING>","81102","Slovakia","BTSPD","+421 259340000","Hotel","48.1402168","17.10595","https://www.radissonhotels.com/en-us/destination","<MISSING>","<MISSING>"
"https://www.radissonhotels.com/en-us/hotels/park-inn-budapest","Park Inn by Radisson Budapest","Szekszárdi Utca 16–18","Budapest","<MISSING>","1138","Hungary","BUDPB","+36 (1) 688 4900","Hotel","47.5531731","19.0780544","https://www.radissonhotels.com/en-us/destination","<MISSING>","<MISSING>"
"https://www.radissonhotels.com/en-us/hotels/park-inn-bucharest","Park Inn by Radisson Bucharest Hotel & Residence","2-4 Luterana Street","Bucharest","<MISSING>","10162","Romania","BUHPD","+40 21 601 3600","Hotel","44.4413338","26.0927811","https://www.radissonhotels.com/en-us/destination","<MISSING>","<MISSING>"
"https://www.radissonhotels.com/en-us/hotels/park-inn-cologne-city","Park Inn by Radisson Cologne City West","Innere Kanalstrasse 15","Cologne","<MISSING>","D-50823","Germany","CGNP2","+49 221 5701 0","Hotel","50.93966","6.924565","https://www.radissonhotels.com/en-us/destination","<MISSING>","<MISSING>"
"https://www.radissonhotels.com/en-us/hotels/park-inn-copenhagen-airport","Park Inn by Radisson Copenhagen Airport","Engvej 171","Copenhagen","<MISSING>","DK-2300","Denmark","CPHP1","+45 32 870 202","Hotel","55.6453934","12.6372709","https://www.radissonhotels.com/en-us/destination","<MISSING>","<MISSING>"
"https://www.radissonhotels.com/en-us/hotels/park-inn-cape-town-foreshore","Park Inn by Radisson Cape Town Foreshore","29 Heerengracht","Cape Town","<MISSING>","8000","South Africa","CPTPB","+27 (21) 427 4800","Hotel","-33.9187546","18.4259071","https://www.radissonhotels.com/en-us/destination","<MISSING>","<MISSING>"
"https://www.radissonhotels.com/en-us/hotels/park-inn-cape-town-newlands","Park Inn by Radisson Cape Town Newlands","10 Hemlock Street","Cape Town","<MISSING>","7700","South Africa","CPTPN","+27 (21) 8226500","Hotel","-33.97655","18.4655647","https://www.radissonhotels.com/en-us/destination","<MISSING>","<MISSING>"
"https://www.radissonhotels.com/en-us/hotels/park-inn-cardiff-city-centre","Park Inn by Radisson Cardiff City Centre","Mary Ann Street","Cardiff","<MISSING>","CF10 2JH","United Kingdom","CWLPJ","+44 2920 341 441","Hotel","51.4783936","-3.172361","https://www.radissonhotels.com/en-us/destination","<MISSING>","<MISSING>"
"https://www.radissonhotels.com/en-us/hotels/park-inn-al-khobar","Park Inn by Radisson Al Khobar","Al Rawabi District,King Faisal","Al Khobar","<MISSING>","31952","Saudi Arabia","DHAPD","+966 13 8100800","Hotel","26.3292675","50.21126","https://www.radissonhotels.com/en-us/destination","<MISSING>","<MISSING>"
"https://www.radissonhotels.com/en-us/hotels/park-inn-dresden","Park Inn by Radisson Dresden","Melanchthonstrasse 2","Dresden","<MISSING>","D-01099","Germany","DRSPD","+49 351 80610","Hotel","51.0601158","13.7519855","https://www.radissonhotels.com/en-us/destination","<MISSING>","<MISSING>"
"https://www.radissonhotels.com/en-us/hotels/park-inn-dubai-motor-city","Park Inn by Radisson Dubai Motor City","Turin Boulevard Road 125/126","Dubai","<MISSING>","<MISSING>","United Arab Emirates","DXBPG","+ 971 (4) 249 4100","Hotel","25.04764","55.2428246","https://www.radissonhotels.com/en-us/destination","<MISSING>","<MISSING>"
"https://www.radissonhotels.com/en-us/hotels/park-inn-najran","Park Inn by Radisson Najran","Land Plot B, Alfahad District","Najran City","<MISSING>","<MISSING>","Saudi Arabia","EAMPD","+966 17 5447800","Hotel","17.5682888","44.23045","https://www.radissonhotels.com/en-us/destination","<MISSING>","<MISSING>"
"https://www.radissonhotels.com/en-us/hotels/park-inn-papenburg","Park Inn by Radisson Papenburg","Hauptkanal Rechts 7","Papenburg","<MISSING>","D-26871","Germany","EMEPD","+49 49 616 6400","Hotel","53.0859451","7.388145","https://www.radissonhotels.com/en-us/destination","<MISSING>","<MISSING>"
"https://www.radissonhotels.com/en-us/hotels/park-inn-frankfurt-airport","Park Inn by Radisson Frankfurt Airport","Amelia-Mary-Earhart-Str.10","Frankfurt","<MISSING>","60549","Germany","FRAPQ","+49 (69) 900276 0","Hotel","50.0553436","8.593451","https://www.radissonhotels.com/en-us/destination","<MISSING>","<MISSING>"
"https://www.radissonhotels.com/en-us/hotels/park-inn-glasgow-city-centre","Park Inn by Radisson Glasgow City Centre","139-141 West George Street","Glasgow","<MISSING>","G2 2JJ","United Kingdom","GLAPD","+44 141 221 1211","Hotel","55.862278","-4.256634","https://www.radissonhotels.com/en-us/destination","<MISSING>","<MISSING>"
"https://www.radissonhotels.com/en-us/hotels/park-inn-haugesund-airport","Park Inn by Radisson Haugesund Airport","Helganesveien 24, Avaldsnes","Haugesund","<MISSING>","4262","Norway","HAUPD","+47 5286 1090","Hotel","59.3416367","5.274639","https://www.radissonhotels.com/en-us/destination","<MISSING>","<MISSING>"
"https://www.radissonhotels.com/en-us/hotels/park-inn-yaroslavl","Park Inn by Radisson Yaroslavl","Pavlika Morozova Str. 3B","Yaroslavl","<MISSING>","150054","Russian Federation","IARPD","+7 4852 770088","Hotel","57.6280022","39.83477","https://www.radissonhotels.com/en-us/destination","<MISSING>","<MISSING>"
"https://www.radissonhotels.com/en-us/hotels/park-inn-kyiv-troyitska","Park Inn by Radisson Kyiv Troyitska","55, Velyka Vasylkivska Str.","Kyiv","<MISSING>","3150","Ukraine","IEVPT","+380 44 586 29 00","Hotel","50.43222","30.5180283","https://www.radissonhotels.com/en-us/destination","<MISSING>","<MISSING>"
"https://www.radissonhotels.com/en-us/hotels/park-inn-izhevsk","Park Inn by Radisson Izhevsk","Borodina, 25","Izhevsk","<MISSING>","426000","Russian Federation","IJKPD","+ 7 3412 930010","Hotel","56.85215","53.2073135","https://www.radissonhotels.com/en-us/destination","<MISSING>","<MISSING>"
"https://www.radissonhotels.com/en-us/hotels/park-inn-new-delhi-ip-extension","Park Inn by Radisson New Delhi IP Extension","Plot No. 6A","New Delhi","<MISSING>","110092","India","INDEXTN","+91 011 66336000","Hotel","28.6299458","77.31486","https://www.radissonhotels.com/en-us/destination","<MISSING>","<MISSING>"
"https://www.radissonhotels.com/en-us/hotels/park-inn-gurgaon-bilaspur","Park Inn by Radisson Bilaspur","NH-8, Bilaspur","Gurugram","<MISSING>","122413","India","INDGGBS","+1 800 1080 333","Hotel","28.2952576","76.86505","https://www.radissonhotels.com/en-us/destination","<MISSING>","<MISSING>"
"https://www.radissonhotels.com/en-us/hotels/park-inn-gurgaon","Park Inn, Gurgaon","Civil Lines,","Gurugram","<MISSING>","122001","India","INDGUPD","+91 1244795555","Hotel","28.45501","77.0319748","https://www.radissonhotels.com/en-us/destination","<MISSING>","<MISSING>"
"https://www.radissonhotels.com/en-us/hotels/park-inn-jaipur-jai-singh-highway","Park Inn Jaipur Jai Singh Highway","A-28/C/3, Sawai Jaisingh Hwy","Jaipur","<MISSING>","302016","India","INDJAIS","+91 1414151000","Hotel","26.9226151","75.79401","https://www.radissonhotels.com/en-us/destination","<MISSING>","<MISSING>"
"https://www.radissonhotels.com/en-us/hotels/park-inn-new-delhi-lajpat-nagar","Park Inn by Radisson New Delhi Lajpat Nagar","1&amp;2, Ring Road,","New Delhi","<MISSING>","110024","India","INDNDLN","+91 11 4651 5151","Hotel","28.56376","77.23483","https://www.radissonhotels.com/en-us/destination","<MISSING>","<MISSING>"
"https://www.radissonhotels.com/en-us/hotels/park-inn-resort-goa-phoenix","Park Inn by Radisson Goa Candolim","Sequera Vado, Candolim","Goa","<MISSING>","403515","India","INDPHGOA","+91 832 6633333","Hotel","15.51486","73.7696457","https://www.radissonhotels.com/en-us/destination","<MISSING>","<MISSING>"
"https://www.radissonhotels.com/en-us/hotels/park-inn-amritsar-airport","Park Inn by Radisson Amritsar Airport","Opposite International Airport, Adjoining Radisson Blu","Amritsar","<MISSING>","143001","India","INDPIAA","1 800 1080 333","Hotel","31.7065277","74.8192749","https://www.radissonhotels.com/en-us/destination","<MISSING>","<MISSING>"
"https://www.radissonhotels.com/en-us/hotels/park-inn-gwalior","Park Inn by Radisson Gwalior","Beside DB Mall, Opposite Gwalior Railway Station, Race Course Road","Gwalior","<MISSING>","474002","India","INDPIGW","+91 751 4230000","Hotel","26.21561","78.18447","https://www.radissonhotels.com/en-us/destination","<MISSING>","<MISSING>"
"https://www.radissonhotels.com/en-us/hotels/park-inn-istanbul-atasehir","Park Inn by Radisson Istanbul Atasehir","Kible Street No. 25, Serifali Mahallesi","Istanbul","<MISSING>","34775","Turkey","ISTPA","+90 216 251 69 00","Hotel","40.9971123","29.14365","https://www.radissonhotels.com/en-us/destination","<MISSING>","<MISSING>"
"https://www.radissonhotels.com/en-us/hotels/park-inn-istanbul-asia-kavacik","Park Inn by Radisson Istanbul Asia Kavacik","Kavacik Mh., Erturk Sk. No. 1","Istanbul","<MISSING>","34810","Turkey","ISTPI","+90 216 693 34 34","Hotel","41.0927238","29.0949173","https://www.radissonhotels.com/en-us/destination","<MISSING>","<MISSING>"
"https://www.radissonhotels.com/en-us/hotels/park-inn-istanbul-odayeri","Park Inn by Radisson Istanbul Airport, Odayeri","Odayeri Mah. Selcuk Bey Sok. No. 27","Istanbul","<MISSING>","34076","Turkey","ISTPO","+90 212 377 11 77, +90 532 290 50 55","Hotel","41.23695","28.854454","https://www.radissonhotels.com/en-us/destination","<MISSING>","<MISSING>"
"https://www.radissonhotels.com/en-us/hotels/park-inn-istanbul-ataturk-airport","Park Inn by Radisson Istanbul Ataturk Airport","Halkali Merkez Mahallesi Fatih","Istanbul","<MISSING>","34303","Turkey","ISTPQ","+90 (212) 999 67 77","Hotel","41.02955","28.8064251","https://www.radissonhotels.com/en-us/destination","<MISSING>","<MISSING>"
"https://www.radissonhotels.com/en-us/hotels/park-inn-izmir","Park Inn by Radisson Izmir","Cumhuriyet Bulvari No: 124","Izmir","<MISSING>","35210","Turkey","IZMPD","+90 232 4044242","Hotel","38.4271164","27.1334019","https://www.radissonhotels.com/en-us/destination","<MISSING>","<MISSING>"
"https://www.radissonhotels.com/en-us/hotels/park-inn-madinah-road-jeddah","Park Inn by Radisson Jeddah Madinah Road","Abi Haitham Al Ansari Street, Al Mohammadiyyah District","Jeddah","<MISSING>","23623","Saudi Arabia","JEDPM","+966 12 51 11 8 99","Hotel","21.65086","39.1390076","https://www.radissonhotels.com/en-us/destination","<MISSING>","<MISSING>"
"https://www.radissonhotels.com/en-us/hotels/park-inn-johannesburg-sandton","Park Inn by Radisson Sandton","118 Katherine Street","Johannesburg","<MISSING>","2146","South Africa","JNBPS","+ 27 (11) 303 1000","Hotel","-26.10551","28.0681038","https://www.radissonhotels.com/en-us/destination","<MISSING>","<MISSING>"
"https://www.radissonhotels.com/en-us/hotels/park-inn-duqm","Park Inn by Radisson Hotel & Residence Duqm","Wadi Say Al Wusta Al Wusta","Duqm","<MISSING>","<MISSING>","Oman","JNJPD","+968 2208 5700","Hotel","19.5648327","57.69578","https://www.radissonhotels.com/en-us/destination","<MISSING>","<MISSING>"
"https://www.radissonhotels.com/en-us/hotels/park-inn-kigali","Park Inn by Radisson Kigali","c/o Avenue de Kiyovu and Res des Parcs","Kigali","<MISSING>","<MISSING>","Rwanda","KGLPD","+250 788 132500","Hotel","-1.951657","30.070755","https://www.radissonhotels.com/en-us/destination","<MISSING>","<MISSING>"
"https://www.radissonhotels.com/en-us/hotels/park-inn-krakow","Park Inn by Radisson Krakow","Ul. Monte Cassino 2","Krakow","<MISSING>","30-337","Poland","KRKPD","+48 (12) 375 55 55","Hotel","50.0473557","19.9302139","https://www.radissonhotels.com/en-us/destination","<MISSING>","<MISSING>"
"https://www.radissonhotels.com/en-us/hotels/park-inn-katowice","Park Inn by Radisson Katowice","Bytkowska 1a","Katowice","<MISSING>","40-147","Poland","KTWPD","+48 32 721 11 11","Hotel","50.29008","19.00548","https://www.radissonhotels.com/en-us/destination","<MISSING>","<MISSING>"
"https://www.radissonhotels.com/en-us/hotels/park-inn-kazan","Park Inn by Radisson Kazan","Ul. Lesgafta 7","Kazan","<MISSING>","420043","Russian Federation","KZNPB","+7 (843) 2352350","Hotel","55.787075","49.1425819","https://www.radissonhotels.com/en-us/destination","<MISSING>","<MISSING>"
"https://www.radissonhotels.com/en-us/hotels/park-inn-luebeck","Park Inn by Radisson Lübeck","Willy Brandt Allee 1-5","Lubeck","<MISSING>","23554","Germany","LBCPD","+49 (451) 15040","Hotel","53.8676","10.67685","https://www.radissonhotels.com/en-us/destination","<MISSING>","<MISSING>"
"https://www.radissonhotels.com/en-us/hotels/park-inn-libreville","Park Inn by Radisson Libreville","7, Boulevard de Nice","Libreville","<MISSING>","2254","Gabon","LBVPD","+241 01144 8000","Hotel","0.43019","9.419632","https://www.radissonhotels.com/en-us/destination","<MISSING>","<MISSING>"
"https://www.radissonhotels.com/en-us/hotels/park-inn-congress-st-petersburg-pribaltiyskaya","Park Inn by Radisson Pribaltiyskaya Hotel & Congress Center","14 Korablestoiteley St","St. Petersburg","<MISSING>","199226","Russian Federation","LEDP2","+7 812 329 2626","Hotel","59.9388962","30.21487","https://www.radissonhotels.com/en-us/destination","<MISSING>","<MISSING>"
"https://www.radissonhotels.com/en-us/hotels/park-inn-conference-st-petersburg-pulkovskaya","Park Inn by Radisson Pulkovskaya Hotel & Conference Centre St Petersburg","Pobedy Square 1","St. Petersburg","<MISSING>","196240","Russian Federation","LEDPD","+7 812 740 3900","Hotel","59.8423157","30.3189716","https://www.radissonhotels.com/en-us/destination","<MISSING>","<MISSING>"
"https://www.radissonhotels.com/en-us/hotels/park-inn-st-petersburg-nevsky","Park Inn by Radisson Nevsky St. Petersburg","4 Lit. A, Goncharnaya Street","St. Petersburg","<MISSING>","191036","Russian Federation","LEDPN","+7 (812) 406 73 10","Hotel","59.93004","30.3643322","https://www.radissonhotels.com/en-us/destination","<MISSING>","<MISSING>"
"https://www.radissonhotels.com/en-us/hotels/park-inn-st-petersburg-pulkovo-airport","Park Inn by Radisson Pulkovo Airport St. Petersburg","Pulkovo Airport Terminal 1 41 Pulkovskoe Shosse, Building ZD","St. Petersburg","<MISSING>","196140","Russian Federation","LEDPQ","+7 (812) 6405500","Hotel","59.79977","30.2754536","https://www.radissonhotels.com/en-us/destination","<MISSING>","<MISSING>"
"https://www.radissonhotels.com/en-us/hotels/park-inn-liege-airport","Park Inn by Radisson Liège Airport","14 Rue De L&#039;Aeroport","Grâce-Hollogne","<MISSING>","BE-4460","Belgium","LGGPQ","+32 4 241 00 00","Hotel","50.6441574","5.465433","https://www.radissonhotels.com/en-us/destination","<MISSING>","<MISSING>"
"https://www.radissonhotels.com/en-us/hotels/park-inn-lille-grand-stade","Park Inn by Radisson Lille Grand Stade","211 Boulevard de Tournai","Villeneuve d&#039;Ascq","<MISSING>","59650","France","LILPD","+33 (0)3 20 64 40 00","Hotel","50.6133842","3.132996","https://www.radissonhotels.com/en-us/destination","<MISSING>","<MISSING>"
"https://www.radissonhotels.com/en-us/hotels/park-inn-linz","Park Inn by Radisson Linz","Hessenplatz 16-18","Linz","<MISSING>","4020","Austria","LNZPD","+43 732 777 100","Hotel","48.30051","14.2932129","https://www.radissonhotels.com/en-us/destination","<MISSING>","<MISSING>"
"https://www.radissonhotels.com/en-us/hotels/park-inn-apartments-lagos-victoria-island","Park Inn by Radisson Serviced Apartments Lagos Victoria Island","1700 Violet Yough Close","Lagos","<MISSING>","100001","Nigeria","LOSPB","+234 (1) 280 2070","Hotel","6.430477","3.429607","https://www.radissonhotels.com/en-us/destination","<MISSING>","<MISSING>"
"https://www.radissonhotels.com/en-us/hotels/park-inn-luxembourg-city","Park Inn by Radisson Luxembourg City","Avenue De La Gare 45-47","Luxembourg","<MISSING>","1611","Luxembourg","LUXPD","+352 26 89 18 1","Hotel","49.60232","6.133393","https://www.radissonhotels.com/en-us/destination","<MISSING>","<MISSING>"
"https://www.radissonhotels.com/en-us/hotels/park-inn-manchester-city-centre","Park Inn by Radisson Manchester City Centre","4 Cheetham Hill Road","Manchester","<MISSING>","M4 4EW","United Kingdom","MANPC","+ 44 (161) 832 6565","Hotel","53.48958","-2.241297","https://www.radissonhotels.com/en-us/destination","<MISSING>","<MISSING>"
"https://www.radissonhotels.com/en-us/hotels/park-inn-muscat","Park Inn by Radisson Muscat","Al Khuwair, Sultan Qaboos St","Muscat","<MISSING>","133","Oman","MCTPD","+968 (2) 4507888","Hotel","23.5942535","58.41291","https://www.radissonhotels.com/en-us/destination","<MISSING>","<MISSING>"
"https://www.radissonhotels.com/en-us/hotels/park-inn-malmo","Park Inn by Radisson Malmo","Sjomansg 2","Malmo","<MISSING>","211 19","Sweden","MMAPD","+46 (40) 6286000","Hotel","55.60978","12.9803629","https://www.radissonhotels.com/en-us/destination","<MISSING>","<MISSING>"
"https://www.radissonhotels.com/en-us/hotels/park-inn-murmansk","Park Inn by Radisson Poliarnie Zori, Murmansk","Knipovicha 17","Murmansk","<MISSING>","183039","Russian Federation","MMKPD","+7 8152 289500","Hotel","68.96001","33.07756","https://www.radissonhotels.com/en-us/destination","<MISSING>","<MISSING>"
"https://www.radissonhotels.com/en-us/hotels/park-inn-moscow-sadu","Park Inn by Radisson Sadu, Moscow","17 Bolshaya Polyanka","Moscow","<MISSING>","119180","Russian Federation","MOWPD","+7 495 644 4844","Hotel","55.7391434","37.61796","https://www.radissonhotels.com/en-us/destination","<MISSING>","<MISSING>"
"https://www.radissonhotels.com/en-us/hotels/park-inn-moscow-izmailovo","Park Inn by Radisson Izmailovo Moscow","Nikitinskaya Street 10A","Moscow","<MISSING>","105122","Russian Federation","MOWPI","+7 (499) 269 9565","Hotel","55.80023","37.7755547","https://www.radissonhotels.com/en-us/destination","<MISSING>","<MISSING>"
"https://www.radissonhotels.com/en-us/hotels/park-inn-putrajaya","Park Inn by Radisson Putrajaya","Jalan Universiti, Taman Unipark Suria","Kajang","<MISSING>","43000","Malaysia","MYSPDEC","+60 3 89111999","Hotel","2.978956","101.737663","https://www.radissonhotels.com/en-us/destination","<MISSING>","<MISSING>"
"https://www.radissonhotels.com/en-us/hotels/park-inn-nairobi-westlands","Park Inn by Radisson Nairobi Westlands","Waiyaki Way","Nairobi","<MISSING>","800","Kenya","NBOPD","+254 70 9498 000","Hotel","-1.263472","36.800396","https://www.radissonhotels.com/en-us/destination","<MISSING>","<MISSING>"
"https://www.radissonhotels.com/en-us/hotels/park-inn-nice-airport","Park Inn by Radisson Nice Airport","179 Boulevard Rene Cassin","Nice","<MISSING>","F-06200","France","NCEP1","+33 4 93 18 34 00","Hotel","43.66725","7.208662","https://www.radissonhotels.com/en-us/destination","<MISSING>","<MISSING>"
"https://www.radissonhotels.com/en-us/hotels/park-inn-novokuznetsk","Park Inn by Radisson Novokuznetsk","1A Ermakov Avenue","Novokuznetsk","<MISSING>","654007","Russian Federation","NOZPD","+7 (384) 3576555","Hotel","53.76383","87.14044","https://www.radissonhotels.com/en-us/destination","<MISSING>","<MISSING>"
"https://www.radissonhotels.com/en-us/hotels/park-inn-nuernberg","Park Inn by Radisson Nürnberg","Sandstrasse 2-8","Nuremberg","<MISSING>","90443","Germany","NUEPD","+49 911 704040","Hotel","49.4466553","11.0685616","https://www.radissonhotels.com/en-us/destination","<MISSING>","<MISSING>"
"https://www.radissonhotels.com/en-us/hotels/park-inn-neumarkt","Park Inn by Radisson Neumarkt","Nürnberger Strasse 4","Neumarkt","<MISSING>","92318","Germany","NUEPN","+49 9181 8989 0","Hotel","49.2827644","11.4570723","https://www.radissonhotels.com/en-us/destination","<MISSING>","<MISSING>"
"https://www.radissonhotels.com/en-us/hotels/park-inn-veliky-novgorod","Park Inn by Radisson Veliky Novgorod","Studencheskaya St.2","Veliky Novgorod","<MISSING>","173020","Russian Federation","NVRPD","+7 (816) 263 73 12","Hotel","58.5367126","31.29198","https://www.radissonhotels.com/en-us/destination","<MISSING>","<MISSING>"
"https://www.radissonhotels.com/en-us/hotels/park-inn-northampton","Park Inn by Radisson, Northampton Town Centre","Silver Street","Northampton","<MISSING>","NN1 2TA","United Kingdom","ORMPD","+44 1604 739 988","Hotel","52.2384567","-0.899602","https://www.radissonhotels.com/en-us/destination","<MISSING>","<MISSING>"
"https://www.radissonhotels.com/en-us/hotels/park-inn-oslo-airport-west","Park Inn by Radisson Oslo Airport Hotel West","Museumsveien 26","Gardermoen","<MISSING>","2060","Norway","OSLPA","+47 63 94 95 00","Hotel","60.1880035","11.0678463","https://www.radissonhotels.com/en-us/destination","<MISSING>","<MISSING>"
"https://www.radissonhotels.com/en-us/hotels/park-inn-oslo","Park Inn by Radisson Oslo","Øvre Slottsgate 2C","Oslo","<MISSING>","0157","Norway","OSLPD","+47 22400100","Hotel","59.9111176","10.7406492","https://www.radissonhotels.com/en-us/destination","<MISSING>","<MISSING>"
"https://www.radissonhotels.com/en-us/hotels/park-inn-oslo-airport","Park Inn by Radisson Oslo Airport","Henrik Ibsens Vei","Gardermoen","<MISSING>","2060","Norway","OSLPQ","+47 67 02 40 00","Hotel","60.1903076","11.1019688","https://www.radissonhotels.com/en-us/destination","<MISSING>","<MISSING>"
"https://www.radissonhotels.com/en-us/hotels/park-inn-novosibirsk","Park Inn by Radisson Novosibirsk","37 Dmitriya Shamshurina str.","Novosibirsk","<MISSING>","630004","Russian Federation","OVBPD","+7 383 2300880","Hotel","55.032608","82.8995743","https://www.radissonhotels.com/en-us/destination","<MISSING>","<MISSING>"
"https://www.radissonhotels.com/en-us/hotels/park-inn-gottingen","Park Inn by Radisson Gottingen","Kasseler Landstrasse 25c","Gottingen","<MISSING>","37081","Germany","PADPD","+49 (551) 270707-0","Hotel","51.5310059","9.902644","https://www.radissonhotels.com/en-us/destination","<MISSING>","<MISSING>"
"https://www.radissonhotels.com/en-us/hotels/park-inn-iloilo","Park Inn by Radisson Iloilo","SM City Iloilo Complex, Benigno Aquino Jr. Avenue","Iloilo City","<MISSING>","5000","Philippines","PHLILIL","+63 33 5000001","Hotel","10.7132187","122.549644","https://www.radissonhotels.com/en-us/destination","<MISSING>","<MISSING>"
"https://www.radissonhotels.com/en-us/hotels/park-inn-bacolod","Park Inn by Radisson Bacolod","Block 12 Reclamation Area, Palanca Avenue, SM City Bacolod Complex","Bacolod City","<MISSING>","6100","Philippines","PHLPBAC","+63 34 7068888","Hotel","10.6714773","122.942665","https://www.radissonhotels.com/en-us/destination","<MISSING>","<MISSING>"
"https://www.radissonhotels.com/en-us/hotels/park-inn-davao","Park Inn by Radisson Davao","Asian Highway 26","Davao City","<MISSING>","8000","Philippines","PHLPIDV","+63 82 2727600","Hotel","7.097586","125.630356","https://www.radissonhotels.com/en-us/destination","<MISSING>","<MISSING>"
"https://www.radissonhotels.com/en-us/hotels/park-inn-clark","Park Inn by Radisson Clark","SM City Clark, M.A. Roxas Highway","Angeles","<MISSING>","2010","Philippines","PHLPIRC","+63 45 5987000","Hotel","15.1701918","120.578056","https://www.radissonhotels.com/en-us/destination","<MISSING>","<MISSING>"
"https://www.radissonhotels.com/en-us/hotels/park-inn-edsa-quezon","Park Inn by Radisson North EDSA","SM City North EDSA Complex, EDSA Corner North Avenue, Barangay Bagong Pag-Asa, Metro Manila","Quezon City","<MISSING>","1105","Philippines","PHLPNES","+63 2 79441888","Hotel","14.6559467","121.033134","https://www.radissonhotels.com/en-us/destination","<MISSING>","<MISSING>"
"https://www.radissonhotels.com/en-us/hotels/park-inn-poznan","Park Inn by Radisson Poznan","Szyperska 22","Poznan","<MISSING>","61-754","Poland","POZPD","+48 (61) 672 46 00","Hotel","52.40944","16.9389343","https://www.radissonhotels.com/en-us/destination","<MISSING>","<MISSING>"
"https://www.radissonhotels.com/en-us/hotels/park-inn-polokwane","Park Inn by Radisson Polokwane","Portion 274 of the Farm Sterk-","Polokwane","<MISSING>","6885","South Africa","PTGPD","+ 27 (15) 495 0969","Hotel","-23.92639","29.4646721","https://www.radissonhotels.com/en-us/destination","<MISSING>","<MISSING>"
"https://www.radissonhotels.com/en-us/hotels/park-inn-abeokuta","Park Inn by Radisson Abeokuta","IBB Boulevard, Kuto","Abeokuta","<MISSING>","110252","Nigeria","QATPD","+234 (813) 9860020","Hotel","7.156137","3.348967","https://www.radissonhotels.com/en-us/destination","<MISSING>","<MISSING>"
"https://www.radissonhotels.com/en-us/hotels/park-inn-makkah-aziziyah","Park Inn by Radisson Makkah Aziziyah","2516 Al Masjid Al Haram Road AlMursalat District","Makkah","<MISSING>","24247","Saudi Arabia","QCAPA","+966 1255 99100","Hotel","21.4013557","39.8792229","https://www.radissonhotels.com/en-us/destination","<MISSING>","<MISSING>"
"https://www.radissonhotels.com/en-us/hotels/park-inn-makkah-al-naseem","Park Inn by Radisson Makkah Al Naseem","Land Plot no. 954/2","Makkah","<MISSING>","21955","Saudi Arabia","QCAPM","+966 (12) 5260 500","Hotel","21.3819122","39.87242","https://www.radissonhotels.com/en-us/destination","<MISSING>","<MISSING>"
"https://www.radissonhotels.com/en-us/hotels/park-inn-dammam","Park Inn by Radisson Dammam","Dammam Corniche","Dammam","<MISSING>","31952","Saudi Arabia","QDMPD","+966 (13) 8093311","Hotel","26.4530964","50.1308","https://www.radissonhotels.com/en-us/destination","<MISSING>","<MISSING>"
"https://www.radissonhotels.com/en-us/hotels/park-inn-apartments-dammam-industrial-city","Park Inn by Radisson Hotel & Apartments Dammam Industrial City","Intersect Highway 615, Makkah Road 67th Street","Dammam","<MISSING>","34334","Saudi Arabia","QDMPI","+966 13 8462001","Hotel","26.2335129","49.98691","https://www.radissonhotels.com/en-us/destination","<MISSING>","<MISSING>"
"https://www.radissonhotels.com/en-us/hotels/park-inn-resort-sarvar-spa","Park Inn by Radisson Sárvár Resort & Spa","Vadkerti U. 4","Sarvar","<MISSING>","9600","Hungary","QGYPD","+36 95 530 100","Hotel","47.2472572","16.94795","https://www.radissonhotels.com/en-us/destination","<MISSING>","<MISSING>"
"https://www.radissonhotels.com/en-us/hotels/park-inn-hasselt","Park Inn by Radisson Hasselt","St. Jozefstraat 10.2.2","Hasselt","<MISSING>","3500","Belgium","QHAPD","+32 11 718880","Hotel","50.9285851","5.339959","https://www.radissonhotels.com/en-us/destination","<MISSING>","<MISSING>"
"https://www.radissonhotels.com/en-us/hotels/park-inn-jubail-industrial-city","Park Inn by Radisson Jubail Industrial City","Al Derah Road","Jubail","<MISSING>","<MISSING>","Saudi Arabia","QJBPI","+966-13-343-7500","Hotel","27.1745911","49.5268822","https://www.radissonhotels.com/en-us/destination","<MISSING>","<MISSING>"
"https://www.radissonhotels.com/en-us/hotels/park-inn-york-city-centre","Park Inn by Radisson York City Centre","North Street","York","<MISSING>","Y01 6JF","United Kingdom","QQYPD","+44 1904 459988","Hotel","53.9583168","-1.085221","https://www.radissonhotels.com/en-us/destination","<MISSING>","<MISSING>"
"https://www.radissonhotels.com/en-us/hotels/park-inn-reykjavik-keflavik-airport","Park Inn By Radisson Reykjavik Keflavik Airport","Hafnargata 57, 230","Keflavik","<MISSING>","230","Iceland","REKPQ","+354 421-5222","Hotel","64.00034","-22.5496","https://www.radissonhotels.com/en-us/destination","<MISSING>","<MISSING>"
"https://www.radissonhotels.com/en-us/hotels/park-inn-riga-barona","Park Inn by Radisson Residence Riga Barona","Krisjana Barona iela 40","Riga","<MISSING>","LV-1011","Latvia","RIXPR","+371 6331 5777","Hotel","56.9534073","24.1264343","https://www.radissonhotels.com/en-us/destination","<MISSING>","<MISSING>"
"https://www.radissonhotels.com/en-us/hotels/park-inn-riga-valdemara","Park Inn by Radisson Riga Valdemara","Krogus iela 1","Riga","<MISSING>","LV-1048","Latvia","RIXPV","+371 6347 7777","Hotel","56.9467","24.0769","https://www.radissonhotels.com/en-us/destination","<MISSING>","<MISSING>"
"https://www.radissonhotels.com/en-us/hotels/park-inn-riyadh","Park Inn by Radisson Riyadh","7314 Al Ihsa St., Az Zahra District","Riyadh","<MISSING>","12811-2914","Saudi Arabia","RUHPA","+966 11 200 9999","Hotel","24.6907","46.73227","https://www.radissonhotels.com/en-us/destination","<MISSING>","<MISSING>"
"https://www.radissonhotels.com/en-us/hotels/park-inn-southend-on-sea","Park Inn by Radisson Palace, Southend-On-Sea","Church Road","Southend-On-Sea","<MISSING>","SS1 2AL","United Kingdom","SENPD","+44 1702 455100","Hotel","51.53393","0.716096","https://www.radissonhotels.com/en-us/destination","<MISSING>","<MISSING>"
"https://www.radissonhotels.com/en-us/hotels/park-inn-shannon-airport","Park Inn by Radisson Shannon Airport","Shannon Airport","Shannon","<MISSING>","<MISSING>","Ireland","SNNPQ","+353 61 471 122","Hotel","52.690876","-8.919736","https://www.radissonhotels.com/en-us/destination","<MISSING>","<MISSING>"
"https://www.radissonhotels.com/en-us/hotels/park-inn-zalakaros-spa","Park Inn by Radisson Hotel and Spa Zalakaros","Udulo Sor","Zalakaros","<MISSING>","8749","Hungary","SOBPD","+36 30 565 8849","Hotel","46.5467873","17.12661","https://www.radissonhotels.com/en-us/destination","<MISSING>","<MISSING>"
"https://www.radissonhotels.com/en-us/hotels/park-inn-samsun","Park Inn by Radisson Samsun","Cumhuriyet Mahallesi","Samsun","<MISSING>","55310","Turkey","SSXPD","+90 362 312 55 55","Hotel","41.2269","36.45118","https://www.radissonhotels.com/en-us/destination","<MISSING>","<MISSING>"
"https://www.radissonhotels.com/en-us/hotels/park-inn-stockholm-solna","Park Inn by Radisson Stockholm Solna","Hotellgatan 11","Solna","<MISSING>","SE-17125","Sweden","STOP2","+46 8 470 9100","Hotel","59.3596649","18.0001087","https://www.radissonhotels.com/en-us/destination","<MISSING>","<MISSING>"
"https://www.radissonhotels.com/en-us/hotels/park-inn-stockholm-hammarby-sjostad","Park Inn by Radisson Stockholm Hammarby Sjostad","Midskeppsgatan 6","Stockholm","<MISSING>","SE-12066","Sweden","STOPS","+46 (8) 5050 7000","Hotel","59.3016052","18.1053944","https://www.radissonhotels.com/en-us/destination","<MISSING>","<MISSING>"
"https://www.radissonhotels.com/en-us/hotels/park-inn-stuttgart","Park Inn by Radisson Stuttgart","Hauptstaetter Strasse 147","Stuttgart","<MISSING>","70178","Germany","STRPD","+49 (711) 320 940","Hotel","48.7647858","9.170075","https://www.radissonhotels.com/en-us/destination","<MISSING>","<MISSING>"
"https://www.radissonhotels.com/en-us/hotels/park-inn-moscow-sheremetyevo-airport","Park Inn by Radisson, Sheremetyevo Airport Moscow","Mezhdunarodnoe shosse, 1A","Khimki","<MISSING>","141400","Russian Federation","SVOPD","+ 7 (495) 232 2220","Hotel","55.9610825","37.4130249","https://www.radissonhotels.com/en-us/destination","<MISSING>","<MISSING>"
"https://www.radissonhotels.com/en-us/hotels/park-inn-ekaterinburg","Park Inn by Radisson, Ekaterinburg","Mamina-Sibiryaka 98","Ekaterinburg","<MISSING>","620075","Russian Federation","SVXPD","+7 343 216 6000","Hotel","56.8368454","60.6186867","https://www.radissonhotels.com/en-us/destination","<MISSING>","<MISSING>"
"https://www.radissonhotels.com/en-us/hotels/park-inn-conference-tallinn-meriton-spa","Park Inn by Radisson Meriton Conference & Spa Hotel Tallinn","Toompuiestee 27","Tallinn","<MISSING>","10149","Estonia","TLLPM","+372 62 88 100","Hotel","59.4352341","24.7313957","https://www.radissonhotels.com/en-us/destination","<MISSING>","<MISSING>"
"https://www.radissonhotels.com/en-us/hotels/park-inn-tallinn","Park Inn by Radisson Central Tallinn","Narva Mnt 7c","Tallinn","<MISSING>","EE-10117","Estonia","TLLPR","+372 633 9800","Hotel","59.43751","24.76141","https://www.radissonhotels.com/en-us/destination","<MISSING>","<MISSING>"
"https://www.radissonhotels.com/en-us/hotels/park-inn-astana","Park Inn by Radisson Astana","Kenesari Str. &amp; Saryarka Bul.","Nur-Sultan","<MISSING>","10000","Kazakhstan","TSEPD","+7 (717) 2670000","Hotel","51.16286","71.41042","https://www.radissonhotels.com/en-us/destination","<MISSING>","<MISSING>"
"https://www.radissonhotels.com/en-us/hotels/park-inn-vienna-uno-city","Park Inn by Radisson Uno City Vienna","Wagramer Strasse 16-18","Vienna","<MISSING>","1220","Austria","VIEP1","+43 1 260 40 0","Hotel","48.23414","16.4209442","https://www.radissonhotels.com/en-us/destination","<MISSING>","<MISSING>"
"https://www.radissonhotels.com/en-us/hotels/park-inn-moscow-odintsovo","Park Inn by Radisson Odintsovo Moscow","8 Nedelinia Street","Odintsovo","<MISSING>","143002","Russian Federation","VKOPO","+7 (495) 594 1600","Hotel","55.67926","37.2673225","https://www.radissonhotels.com/en-us/destination","<MISSING>","<MISSING>"
"https://www.radissonhotels.com/en-us/hotels/park-inn-vilnius-airport-business-center","Park Inn by Radisson Vilnius Airport Hotel & Business Centre","Oreiviu 32","Vilnius","<MISSING>","02188","Lithuania","VNOPQ","+370 52 400055","Hotel","54.64723","25.27675","https://www.radissonhotels.com/en-us/destination","<MISSING>","<MISSING>"
"https://www.radissonhotels.com/en-us/hotels/park-inn-volgograd","Park Inn by Radisson Volgograd","7, Mikhaila Balonina Str.","Volgograd","<MISSING>","400087","Russian Federation","VOGP2","+7 (844) 2268125","Hotel","48.71301","44.51143","https://www.radissonhotels.com/en-us/destination","<MISSING>","<MISSING>"
"https://www.radissonhotels.com/en-us/hotels/park-inn-peterborough","Park Inn by Radisson Peterborough","Wentworth St","Peterborough","<MISSING>","PE1 1BA","United Kingdom","XVHPD","+ 44 (0)1733 353750","Hotel","52.5707855","-0.245206","https://www.radissonhotels.com/en-us/destination","<MISSING>","<MISSING>"
"https://www.radissonhotels.com/en-us/hotels/park-inn-leuven","Park Inn by Radisson Leuven","Martelarenlaan 36","Leuven","<MISSING>","3010","Belgium","ZGKPD","+32 (16) 61 66 00","Hotel","50.8815","4.717735","https://www.radissonhotels.com/en-us/destination","<MISSING>","<MISSING>"
"https://www.radissonhotels.com/en-us/hotels/park-inn-wismar","Park Inn by Radisson Wismar","Alter Holzhafen 28","Wismar","<MISSING>","23966","Germany","ZWMPD","0049 3841 25 75 0","Hotel","53.8959","11.4572","https://www.radissonhotels.com/en-us/destination","<MISSING>","<MISSING>"
"https://www.radissonhotels.com/en-us/hotels/radisson-blu-aalborg-limfjord","Radisson Blu Limfjord Hotel, Aalborg","Ved Stranden 14-16","Aalborg","<MISSING>","DK-9000","Denmark","AALZH","+45 98164333","Hotel","57.05068","9.92015","https://www.radissonhotels.com/en-us/destination","<MISSING>","<MISSING>"
"https://www.radissonhotels.com/en-us/hotels/radisson-blu-resort-al-ain","Radisson Blu Hotel & Resort, Al Ain","Al Sarooj District","Al Ain","<MISSING>","<MISSING>","United Arab Emirates","AANZA","+971 3 768 6666","Hotel","24.20711","55.78507","https://www.radissonhotels.com/en-us/destination","<MISSING>","<MISSING>"
"https://www.radissonhotels.com/en-us/hotels/radisson-blu-aarhus-scandinavia","Radisson Blu Scandinavia Hotel, Aarhus","Margrethepladsen 1 (Entrance from, Thomas Jensens Allé 1)","Aarhus","<MISSING>","DK-8000","Denmark","AARZH","+45 8612 8665","Hotel","56.1521339","10.1975546","https://www.radissonhotels.com/en-us/destination","<MISSING>","<MISSING>"
"https://www.radissonhotels.com/en-us/hotels/radisson-blu-abidjan-airport","Radisson Blu Hotel, Abidjan Airport","Route de l&#039;Aeroport d&#039;Abidjan","Abidjan","<MISSING>","2176","Côte d&#039;Ivoire","ABJZR","+225 21 22 20 00","Hotel","5.25862","-3.936689","https://www.radissonhotels.com/en-us/destination","<MISSING>","<MISSING>"
"https://www.radissonhotels.com/en-us/hotels/radisson-blu-addis-ababa","Radisson Blu Hotel, Addis Ababa","Kazanchis Business District","Addis Ababa","<MISSING>","21555","Ethiopia","ADDZA","+251 (1) 15 15 76 00","Hotel","9.01642","38.76745","https://www.radissonhotels.com/en-us/destination","<MISSING>","<MISSING>"
"https://www.radissonhotels.com/en-us/hotels/radisson-blu-resort-congress-sochi","Radisson Blu Resort & Congress Centre, Sochi","1a Golubaya Street, Adler Dist","Sochi","<MISSING>","354340","Russian Federation","AERZI","+7 (862) 2433300","Hotel","43.4101219","39.9379","https://www.radissonhotels.com/en-us/destination","<MISSING>","<MISSING>"
"https://www.radissonhotels.com/en-us/hotels/radisson-rosa-khutor","Radisson Hotel, Rosa Khutor","4 Panorama Embankment, Esto-Sadok","Sochi","<MISSING>","354392","Russian Federation","AERZK","+7 862 243 13 77","Hotel","43.67279","40.29748","https://www.radissonhotels.com/en-us/destination","<MISSING>","<MISSING>"
"https://www.radissonhotels.com/en-us/hotels/radisson-blu-resort-ajaccio-bay-spa","Radisson Blu Resort & Spa, Ajaccio Bay","Agosta Plage, Grosseto-Prugna","Porticcio - Corsica","<MISSING>","20166","France","AJAZR","+33 4 9577 9797","Hotel","41.8645821","8.791916","https://www.radissonhotels.com/en-us/destination","<MISSING>","<MISSING>"
"https://www.radissonhotels.com/en-us/hotels/radisson-blu-algiers-hydra","Radisson Blu Hotel, Algiers Hydra","Lotissement Moutchachou","Algiers","<MISSING>","16043","Algeria","ALGZA","+213 21 98 32 32","Hotel","36.7516975","3.019102","https://www.radissonhotels.com/en-us/destination","<MISSING>","<MISSING>"
"https://www.radissonhotels.com/en-us/hotels/radisson-blu-alexandria","Radisson Blu Hotel, Alexandria","Alex West, Mehwar El Taamer","Alexandria","<MISSING>","21632","Egypt","ALYZR","+ 20 (3) 5896000","Hotel","31.0557575","29.7197475","https://www.radissonhotels.com/en-us/destination","<MISSING>","<MISSING>"
"https://www.radissonhotels.com/en-us/hotels/radisson-blu-amsterdam","Radisson Blu Hotel, Amsterdam City Center","Rusland 17","Amsterdam","<MISSING>","1012 CK","Netherlands","AMSZH","+31206231231","Hotel","52.37008","4.89664","https://www.radissonhotels.com/en-us/destination","<MISSING>","<MISSING>"
"https://www.radissonhotels.com/en-us/hotels/radisson-blu-noordwijk-aan-zee","Radisson Blu Palace Hotel, Noordwijk aan Zee","Pickeplein 8","Noordwijk aan Zee","<MISSING>","2202 CL","Netherlands","AMSZN","+31 71 365 3000","Hotel","52.24168","4.431687","https://www.radissonhotels.com/en-us/destination","<MISSING>","<MISSING>"
"https://www.radissonhotels.com/en-us/hotels/radisson-blu-amsterdam-schiphol-airport","Radisson Blu Hotel Amsterdam Airport, Schiphol","Boeing Avenue 2, Schiphol-Rijk","Amsterdam Airport Schiphol","<MISSING>","1119 PB","Netherlands","AMSZQ","+ 31 (20) 6553131","Hotel","52.2789536","4.749842","https://www.radissonhotels.com/en-us/destination","<MISSING>","<MISSING>"
"https://www.radissonhotels.com/en-us/hotels/radisson-blu-ankara","Radisson Blu Hotel, Ankara","Istiklal Cad. No: 20 Ulus","Ankara","<MISSING>","6030","Turkey","ANKZH","+90 312 3104848","Hotel","39.93965","32.8514137","https://www.radissonhotels.com/en-us/destination","<MISSING>","<MISSING>"
"https://www.radissonhotels.com/en-us/hotels/radisson-blu-antwerp-astrid","Radisson Blu Astrid Hotel, Antwerp","Koningin Astridplein 7","Antwerp","<MISSING>","B-2018","Belgium","ANRZR","+32 (3) 203 12 34","Hotel","51.2190628","4.421214","https://www.radissonhotels.com/en-us/destination","<MISSING>","<MISSING>"
"https://www.radissonhotels.com/en-us/hotels/radisson-blu-uppsala","Radisson Blu Hotel, Uppsala","Stationsgatan 4","Uppsala","<MISSING>","753 40","Sweden","ARNZB","+ 46 (0) 18 474 79 00","Hotel","59.85918","17.6478939","https://www.radissonhotels.com/en-us/destination","<MISSING>","<MISSING>"
"https://www.radissonhotels.com/en-us/hotels/radisson-blu-kayseri","Radisson Blu Hotel, Kayseri","Hunat Mahallesi, Sivas Caddesi 24/A","Kayseri","<MISSING>","38030","Turkey","ASRZR","+90 (352) 3155000","Hotel","38.72325","35.4958038","https://www.radissonhotels.com/en-us/destination","<MISSING>","<MISSING>"
"https://www.radissonhotels.com/en-us/hotels/radisson-blu-athens","Radisson Blu Park Hotel, Athens","10 Alexandras Ave","Athens","<MISSING>","10682","Greece","ATHZH","+30 210 8894 500","Hotel","37.9912262","23.7333012","https://www.radissonhotels.com/en-us/destination","<MISSING>","<MISSING>"
"https://www.radissonhotels.com/en-us/hotels/radisson-blu-salzburg-altstadt","Radisson Blu Hotel Altstadt, Salzburg","Rudolfskai 28 - Judengasse 15","Salzburg","<MISSING>","5020","Austria","ATSALZBG","+ 43 (662) 84 85 71 - 0","Hotel","47.7998238","13.047081","https://www.radissonhotels.com/en-us/destination","<MISSING>","<MISSING>"
"https://www.radissonhotels.com/en-us/hotels/radisson-blu-resort-abu-dhabi-corniche","Radisson Blu Hotel & Resort, Abu Dhabi Corniche","Corniche Rd","Abu Dhabi","<MISSING>","<MISSING>","United Arab Emirates","AUHZA","+971 2 681 1900","Hotel","24.4629021","54.32571","https://www.radissonhotels.com/en-us/destination","<MISSING>","<MISSING>"
"https://www.radissonhotels.com/en-us/hotels/radisson-blu-abu-dhabi-yas-island","Radisson Blu Hotel, Abu Dhabi Yas Island","P.O.Box 93725","Abu Dhabi","<MISSING>","<MISSING>","United Arab Emirates","AUHZY","+971 (2) 6562000","Hotel","24.4671249","54.59787","https://www.radissonhotels.com/en-us/destination","<MISSING>","<MISSING>"
"https://www.radissonhotels.com/en-us/hotels/radisson-blu-sydney","Radisson Blu Plaza Hotel Sydney","27 O&#039;Connell Street","Sydney","<MISSING>","2000","Australia","AUSPLAZA","+61 2 82140000","Hotel","-33.8654556","151.208939","https://www.radissonhotels.com/en-us/destination","<MISSING>","<MISSING>"
"https://www.radissonhotels.com/en-us/hotels/radisson-blu-bahrain-diplomat-spa","The Diplomat Radisson Blu Hotel, Residence & Spa, Manama","Diplomatic Area, Road 1701","Manama","<MISSING>","5243","Bahrain","BAHZH","+973 17 531666","Hotel","26.2411537","50.592083","https://www.radissonhotels.com/en-us/destination","<MISSING>","<MISSING>"
"https://www.radissonhotels.com/en-us/hotels/radisson-blu-dhaka","Radisson Blu Dhaka Water Garden","Airport Rd, Dhaka Cantonment","Dhaka","<MISSING>","1206","Bangladesh","BANDHAKA","+880 29834555","Hotel","23.8161182","90.40872","https://www.radissonhotels.com/en-us/destination","<MISSING>","<MISSING>"
"https://www.radissonhotels.com/en-us/hotels/radisson-blu-berlin","Radisson Blu Hotel, Berlin","Karl Liebknecht Strasse 3","Berlin","<MISSING>","10178","Germany","BERZA","+49 30 238 280","Hotel","52.5194969","13.4028912","https://www.radissonhotels.com/en-us/destination","<MISSING>","<MISSING>"
"https://www.radissonhotels.com/en-us/hotels/radisson-blu-beirut-verdun","Radisson Blu Hotel, Beirut Verdun","The Dunes Shopping Centre","Beirut","<MISSING>","1105","Lebanon","BEYZA","+961 1 771100","Hotel","33.8840141","35.48301","https://www.radissonhotels.com/en-us/destination","<MISSING>","<MISSING>"
"https://www.radissonhotels.com/en-us/hotels/radisson-blu-beirut","Radisson Blu Martinez Hotel, Beirut","Ain El Mreysseh - P.O. Box 11-1267","Beirut","<MISSING>","LB-1267","Lebanon","BEYZR","+961 1 368 111","Hotel","33.9001122","35.4926872","https://www.radissonhotels.com/en-us/destination","<MISSING>","<MISSING>"
"https://www.radissonhotels.com/en-us/hotels/radisson-blu-belfast","Radisson Blu Hotel, Belfast","The Gasworks, 3 Cromac Place","Belfast","<MISSING>","BT72JB","United Kingdom","BFSZH","+44 28 90 434 065","Hotel","54.5916023","-5.922932","https://www.radissonhotels.com/en-us/destination","<MISSING>","<MISSING>"
"https://www.radissonhotels.com/en-us/hotels/radisson-blu-chattogram","Radisson Blu Chattogram Bay View","S. S. Khaled Road, Lalkhan Bazar","Chattogram","<MISSING>","4000","Bangladesh","BGDRDCH","+880 9612600800","Hotel","22.3474541","91.82286","https://www.radissonhotels.com/en-us/destination","<MISSING>","<MISSING>"
"https://www.radissonhotels.com/en-us/hotels/radisson-blu-bergen","Radisson Blu Royal Hotel, Bergen","Dreggsallmenningen 1","Bergen","<MISSING>","5003","Norway","BGOZH","+47 55543000","Hotel","60.3978729","5.322157","https://www.radissonhotels.com/en-us/destination","<MISSING>","<MISSING>"
"https://www.radissonhotels.com/en-us/hotels/radisson-blu-birmingham","Radisson Blu Hotel, Birmingham","12 Holloway Circus, Queensway","Birmingham","<MISSING>","B1 1BT","United Kingdom","BHXZH","+44 121 654 6000","Hotel","52.4753","-1.9002","https://www.radissonhotels.com/en-us/destination","<MISSING>","<MISSING>"
"https://www.radissonhotels.com/en-us/hotels/radisson-blu-biarritz","Radisson Blu Hotel, Biarritz","1 Carrefour Helianthe","Biarritz","<MISSING>","64200","France","BIQZH","+33 559 011 313","Hotel","43.4782639","-1.564865","https://www.radissonhotels.com/en-us/destination","<MISSING>","<MISSING>"
"https://www.radissonhotels.com/en-us/hotels/radisson-blu-bamako","Radisson Blu Hotel, Bamako","Aci 2000 Hamdallaye","Bamako","<MISSING>","2566","Mali","BKOZH","+ (223) 44 29 00 00","Hotel","12.6352615","-8.030865","https://www.radissonhotels.com/en-us/destination","<MISSING>","<MISSING>"
"https://www.radissonhotels.com/en-us/hotels/radisson-blu-bordeaux","Radisson Blu Hotel, Bordeaux","63 Rue Lucien Faure- Dock","Bordeaux","<MISSING>","33300","France","BODZR","0033 5 56 01 25 00","Hotel","44.8647652","-0.558302","https://www.radissonhotels.com/en-us/destination","<MISSING>","<MISSING>"
"https://www.radissonhotels.com/en-us/hotels/radisson-blu-bodo","Radisson Blu Hotel, Bodo","Storgaten 2","Bodo","<MISSING>","8006","Norway","BOOZH","+47 7551 9000","Hotel","67.28219","14.3752489","https://www.radissonhotels.com/en-us/destination","<MISSING>","<MISSING>"
"https://www.radissonhotels.com/en-us/hotels/radisson-blu-bremen","Radisson Blu Hotel, Bremen","Böttcherstraße 2","Bremen","<MISSING>","28195","Germany","BREZH","+49 421 36960","Hotel","53.0745354","8.805751","https://www.radissonhotels.com/en-us/destination","<MISSING>","<MISSING>"
"https://www.radissonhotels.com/en-us/hotels/radisson-blu-bristol","Radisson Blu Hotel, Bristol","Broad Quay","Bristol","<MISSING>","BS1 4BY","United Kingdom","BRSZH","+ 44 (117) 9349 500","Hotel","51.45229","-2.596512","https://www.radissonhotels.com/en-us/destination","<MISSING>","<MISSING>"
"https://www.radissonhotels.com/en-us/hotels/radisson-blu-basel","Radisson Blu Hotel, Basel","Steinentorstrasse 25","Basel","<MISSING>","4051","Switzerland","BSLZH","+41 61 2272727","Hotel","47.55162","7.58896","https://www.radissonhotels.com/en-us/destination","<MISSING>","<MISSING>"
"https://www.radissonhotels.com/en-us/hotels/radisson-blu-bratislava-carlton","Radisson Blu Carlton Hotel, Bratislava","Hviezdoslavovo Nam 3","Bratislava","<MISSING>","SK-81102","Slovakia","BTSZH","+421 2 5939 0000","Hotel","48.1414","17.1089211","https://www.radissonhotels.com/en-us/destination","<MISSING>","<MISSING>"
"https://www.radissonhotels.com/en-us/hotels/radisson-blu-budapest","Radisson Blu Beke Hotel, Budapest","Terez Korut 43","Budapest","<MISSING>","H-1067","Hungary","BUDAPEST","+36 1 889 3900","Hotel","47.5082779","19.0595474","https://www.radissonhotels.com/en-us/destination","<MISSING>","<MISSING>"
"https://www.radissonhotels.com/en-us/hotels/radisson-blu-bucharest","Radisson Blu Hotel, Bucharest","Calea Victoriei 63-81, Sector1","Bucharest","<MISSING>","10065","Romania","BUHZH","+40 21 311 9000","Hotel","44.4413338","26.0945034","https://www.radissonhotels.com/en-us/destination","<MISSING>","<MISSING>"
"https://www.radissonhotels.com/en-us/hotels/radisson-blu-batumi","Radisson Blu Hotel, Batumi","1 Ninoshvili Street","Batumi","<MISSING>","6000","Georgia","BUSZH","+995 (422) 255555","Hotel","41.65356","41.63757","https://www.radissonhotels.com/en-us/destination","<MISSING>","<MISSING>"
"https://www.radissonhotels.com/en-us/hotels/radisson-blu-brazzaville-mbamou","Radisson Blu M'bamou Palace Hotel, Brazzaville","Avenue Amilcar Cabral","Brazzaville","<MISSING>","<MISSING>","Republic of the Congo","BZVZR","+242 05 050 60 60","Hotel","-4.276311","15.28381","https://www.radissonhotels.com/en-us/destination","<MISSING>","<MISSING>"
"https://www.radissonhotels.com/en-us/hotels/radisson-blu-cairo-heliopolis","Radisson Blu Hotel, Cairo Heliopolis","Abdel Hamid Badawy Street P.O. Box 114 Rawda Al Sheraton","Cairo","<MISSING>","11787","Egypt","CAIZH","+ 20 (2) 26 96 5656","Hotel","30.10664","31.3752956","https://www.radissonhotels.com/en-us/destination","<MISSING>","<MISSING>"
"https://www.radissonhotels.com/en-us/hotels/radisson-blu-cottbus","Radisson Blu Hotel, Cottbus","Vetschauerstrasse 12","Cottbus","<MISSING>","3048","Germany","CBUZH","+49 355 47610","Hotel","51.74921","14.3257113","https://www.radissonhotels.com/en-us/destination","<MISSING>","<MISSING>"
"https://www.radissonhotels.com/en-us/hotels/radisson-blu-chelyabinsk","Radisson Blu Hotel, Chelyabinsk","Truda Street 179","Chelyabinsk","<MISSING>","454091","Russian Federation","CEKZH","+7 (351) 2167777","Hotel","55.1673775","61.3792229","https://www.radissonhotels.com/en-us/destination","<MISSING>","<MISSING>"
"https://www.radissonhotels.com/en-us/hotels/radisson-blu-cannes","Radisson Blu 1835 Hotel, Cannes","2 Boulevard Jean Hibert","Cannes","<MISSING>","6400","France","CEQZA","+ 33 492 99 73 00","Hotel","43.5483131","7.012115","https://www.radissonhotels.com/en-us/destination","<MISSING>","<MISSING>"
"https://www.radissonhotels.com/en-us/hotels/radisson-blu-cologne","Radisson Blu Hotel, Cologne","Messe Kreisel 3","Cologne","<MISSING>","D-50679","Germany","CGNZR","+49 221 277 20 0","Hotel","50.9438","6.9844","https://www.radissonhotels.com/en-us/destination","<MISSING>","<MISSING>"
"https://www.radissonhotels.com/en-us/hotels/radisson-blu-chongqing","Radisson Blu Plaza Chongqing","No. 22 Nan Bin Road, Nan&#039;an","Chongqing","<MISSING>","400060","China","CHNCNBL","+86 23 88668888","Hotel","29.53975","106.565651","https://www.radissonhotels.com/en-us/destination","<MISSING>","<MISSING>"
"https://www.radissonhotels.com/en-us/hotels/radisson-blu-liuzhou","Radisson Blu Hotel Liuzhou","Building 1, Sunshine 100 City, Plaza 2, Guizhong Avenue","Liuzhou, Guangxi","<MISSING>","545006","China","CHNLIUZ","+86 772 8855555","Hotel","24.32353","109.432617","https://www.radissonhotels.com/en-us/destination","<MISSING>","<MISSING>"
"https://www.radissonhotels.com/en-us/hotels/radisson-blu-kashgar","Radisson Blu Kashgar","No. 2, Duolaitebage Road","Kashgar, Xinjiang","<MISSING>","844000","China","CHNRBKG","+86 998 2688888","Hotel","39.4480057","76.00312","https://www.radissonhotels.com/en-us/destination","<MISSING>","<MISSING>"
"https://www.radissonhotels.com/en-us/hotels/radisson-blu-shanghai-hongqiao-forest-manor","Radisson Blu Forest Manor Shanghai Hongqiao","839 Jin Feng Road","Shanghai","<MISSING>","201100","China","CHNRDHQ","+86 021 53298888","Hotel","31.19942","121.289627","https://www.radissonhotels.com/en-us/destination","<MISSING>","<MISSING>"
"https://www.radissonhotels.com/en-us/hotels/radisson-blu-chongqing-sha-ping-ba","Radisson Blu Hotel Chongqing Sha Ping Ba","Li Shu Bay","Chongqing","<MISSING>","400038","China","CHNRDSH","+86 23 88669999","Hotel","29.5428066","106.441322","https://www.radissonhotels.com/en-us/destination","<MISSING>","<MISSING>"
"https://www.radissonhotels.com/en-us/hotels/radisson-blu-resort-wuxi-wetland-park","Radisson Blu Resort Wetland Park Wuxi","No. 205 Feifeng Road","Wuxi","<MISSING>","214115","China","CHNRDWX","+86 510 88584888","Hotel","31.5116444","120.501793","https://www.radissonhotels.com/en-us/destination","<MISSING>","<MISSING>"
"https://www.radissonhotels.com/en-us/hotels/radisson-blu-hangzhou-xintiandi","Radisson Blu Hangzhou Xintiandi","No. 1018, Changbang Road","Hangzhou","<MISSING>","310000","China","CHNRDXD","+86 571 28058888","Hotel","30.19234","120.124557","https://www.radissonhotels.com/en-us/destination","<MISSING>","<MISSING>"
"https://www.radissonhotels.com/en-us/hotels/radisson-blu-shanghai-new-world","Radisson Blu Hotel Shanghai New World","88 Nanjing Road (W)","Shanghai","<MISSING>","200003","China","CHNSGHNW","+86 21 63599999","Hotel","31.2349358","121.473373","https://www.radissonhotels.com/en-us/destination","<MISSING>","<MISSING>"
"https://www.radissonhotels.com/en-us/hotels/radisson-blu-shanghai-pudong-jinqiao","Radisson Blu Shanghai Pudong Jinqiao","No 2/2449 Jinhai Road","Shanghai","<MISSING>","201209","China","CHNSHQJ","+86 21 20537666","Hotel","31.2654667","121.650253","https://www.radissonhotels.com/en-us/destination","<MISSING>","<MISSING>"
"https://www.radissonhotels.com/en-us/hotels/radisson-blu-zhengzhou-huiji","Radisson Blu Zhengzhou Huiji","No. 1 Yingcai Street","Zhengzhou","<MISSING>","450044","China","CHNZZHJ","+86 371 56156666","Hotel","34.8603249","113.671745","https://www.radissonhotels.com/en-us/destination","<MISSING>","<MISSING>"
"https://www.radissonhotels.com/en-us/hotels/radisson-blu-casablanca","Radisson Blu Hotel, Casablanca City Center","2, Boulevard Mohamed Diouri","Casablanca","<MISSING>","20300","Morocco","CMNZH","+212 522080808","Hotel","33.59333","-7.608177","https://www.radissonhotels.com/en-us/destination","<MISSING>","<MISSING>"
"https://www.radissonhotels.com/en-us/hotels/radisson-blu-copenhagen-scandinavia","Radisson Blu Scandinavia Hotel, Copenhagen","Amager Boulevard 70","Copenhagen","<MISSING>","DK-2300","Denmark","CPHZA","+45 3396 5000","Hotel","55.66667","12.58589","https://www.radissonhotels.com/en-us/destination","<MISSING>","<MISSING>"
"https://www.radissonhotels.com/en-us/hotels/radisson-blu-cape-town-waterfront","Radisson Blu Hotel Waterfront, Cape Town","Beach Road Granger Bay Waterfront","Cape Town","<MISSING>","8002","South Africa","CPTZA","+ 27 21 441 3000","Hotel","-33.89955","18.41197","https://www.radissonhotels.com/en-us/destination","<MISSING>","<MISSING>"
"https://www.radissonhotels.com/en-us/hotels/radisson-blu-cape-town-residence","Radisson Blu Hotel & Residence, Cape Town","22 Riebeek Street","Cape Town","<MISSING>","8000","South Africa","CPTZD","+27 21 467 4000","Hotel","-33.91898","18.4222","https://www.radissonhotels.com/en-us/destination","<MISSING>","<MISSING>"
"https://www.radissonhotels.com/en-us/hotels/radisson-blu-cape-town-le-vendome","Radisson Blu Le Vendome Hotel, Cape Town","20 London Road, Sea Point","Cape Town","<MISSING>","8005","South Africa","CPTZV","+27 (0)218265100","Hotel","-33.91283","18.39056","https://www.radissonhotels.com/en-us/destination","<MISSING>","<MISSING>"
"https://www.radissonhotels.com/en-us/hotels/radisson-blu-cardiff","Radisson Blu Hotel, Cardiff","Meridian Gate, Bute Terrace","Cardiff","<MISSING>","CF10 2FL","United Kingdom","CWLZH","+ 44 (29) 20454777","Hotel","51.4768829","-3.173643","https://www.radissonhotels.com/en-us/destination","<MISSING>","<MISSING>"
"https://www.radissonhotels.com/en-us/hotels/radisson-blu-dhahran-residence","Radisson Blu Residence, Dhahran","Jamaluddin Al Afaghani Street and 18 B, Al Khobar","Dhahran","<MISSING>","31952 KSA","Saudi Arabia","DHAZS","+966 13 897 4444","Hotel","26.303215","50.17416","https://www.radissonhotels.com/en-us/destination","<MISSING>","<MISSING>"
"https://www.radissonhotels.com/en-us/hotels/radisson-blu-diyarbakir","Radisson Blu Hotel, Diyarbakir","Firat Mahallesi, Urfa Bulvari No 170","Diyarbakir","<MISSING>","21000","Turkey","DIYZR","+90 412 502 3333","Hotel","37.92158","40.1473579","https://www.radissonhotels.com/en-us/destination","<MISSING>","<MISSING>"
"https://www.radissonhotels.com/en-us/hotels/radisson-blu-resort-djerba","Radisson Blu Palace Resort & Thalasso, Djerba","Houmt Souk, Zone Touristique","Djerba","<MISSING>","4128","Tunisia","DJEZR","+216 7575 7600","Hotel","33.8705139","10.9588194","https://www.radissonhotels.com/en-us/destination","<MISSING>","<MISSING>"
"https://www.radissonhotels.com/en-us/hotels/radisson-blu-dakar-sea-plaza","Radisson Blu Hotel, Dakar Sea Plaza","Route de la Corniche Ouest","Dakar","<MISSING>","BP 16868","Senegal","DKRZH","+221 (33) 8693333","Hotel","14.6957006","-17.4732227","https://www.radissonhotels.com/en-us/destination","<MISSING>","<MISSING>"
"https://www.radissonhotels.com/en-us/hotels/radisson-blu-dhahran","Radisson Blu Hotel Dhahran","Zaid Ibn Al Khattab Street","Dhahran","<MISSING>","31952","Saudi Arabia","DMMZR","+ 966 13 8010080","Hotel","26.305809","50.1777725","https://www.radissonhotels.com/en-us/destination","<MISSING>","<MISSING>"
"https://www.radissonhotels.com/en-us/hotels/radisson-blu-doha","Radisson Blu Hotel, Doha","Salwa Road, Intersection of C","Doha","<MISSING>","<MISSING>","Qatar","DOHZH","+974 4428 1428","Hotel","25.2728443","51.51323","https://www.radissonhotels.com/en-us/destination","<MISSING>","<MISSING>"
"https://www.radissonhotels.com/en-us/hotels/radisson-blu-conference-dresden-radebeul","Radisson Blu Park Hotel & Conference Centre, Dresden Radebeul","Nizzastrasse 55, Radebeul","Dresden","<MISSING>","1445","Germany","DRSZR","+49 351 8321-0","Hotel","51.10508","13.67364","https://www.radissonhotels.com/en-us/destination","<MISSING>","<MISSING>"
"https://www.radissonhotels.com/en-us/hotels/radisson-blu-dortmund","Radisson Blu Hotel, Dortmund","An der Buschmuhle 1","Dortmund","<MISSING>","44139","Germany","DTMZH","+49 231 10860","Hotel","51.49395","7.46872","https://www.radissonhotels.com/en-us/destination","<MISSING>","<MISSING>"
"https://www.radissonhotels.com/en-us/hotels/radisson-blu-dublin","Radisson Blu Royal Hotel, Dublin","Golden Lane","Dublin","<MISSING>","<MISSING>","Ireland","DUBZA","+353 1 898 2900","Hotel","53.3409462","-6.268176","https://www.radissonhotels.com/en-us/destination","<MISSING>","<MISSING>"
"https://www.radissonhotels.com/en-us/hotels/radisson-blu-dublin-st-helens","Radisson Blu St. Helen's Hotel, Dublin","Stillorgan Road","Dublin","<MISSING>","A94 V6W3","Ireland","DUBZH","+353 (1) 2186000","Hotel","53.30501","-6.205165","https://www.radissonhotels.com/en-us/destination","<MISSING>","<MISSING>"
"https://www.radissonhotels.com/en-us/hotels/radisson-blu-dublin-airport","Radisson Blu Hotel, Dublin Airport","Dublin Airport","Dublin","<MISSING>","<MISSING>","Ireland","DUBZQ","+353 (1) 844 6000","Hotel","53.4265671","-6.232507","https://www.radissonhotels.com/en-us/destination","<MISSING>","<MISSING>"
"https://www.radissonhotels.com/en-us/hotels/radisson-blu-duesseldorf-scandinavia","Radisson Blu Scandinavia Hotel, Düsseldorf","Karl-Arnold Platz 5","Dusseldorf","<MISSING>","40474","Germany","DUSZH","+49 211 45530","Hotel","51.2470322","6.769166","https://www.radissonhotels.com/en-us/destination","<MISSING>","<MISSING>"
"https://www.radissonhotels.com/en-us/hotels/radisson-blu-duesseldorf-media-harbour","Radisson Blu Media Harbour Hotel, Düsseldorf","Hammer Strasse 23","Dusseldorf","<MISSING>","40219","Germany","DUSZR","+49 211 3111 910","Hotel","51.2137451","6.753953","https://www.radissonhotels.com/en-us/destination","<MISSING>","<MISSING>"
"https://www.radissonhotels.com/en-us/hotels/radisson-blu-dubai-deira-creek","Radisson Blu Hotel, Dubai Deira Creek","Baniyas Road, Deira","Dubai","<MISSING>","476","United Arab Emirates","DXBZA","+971 (4) 222 7171","Hotel","25.264452","55.3108635","https://www.radissonhotels.com/en-us/destination","<MISSING>","<MISSING>"
"https://www.radissonhotels.com/en-us/hotels/radisson-blu-dubai-media-city","Radisson Blu Hotel, Dubai Media City","Box 211723, Dubai Media City","Dubai","<MISSING>","211723","United Arab Emirates","DXBZR","+971 4 366 9111","Hotel","25.0943832","55.1551","https://www.radissonhotels.com/en-us/destination","<MISSING>","<MISSING>"
"https://www.radissonhotels.com/en-us/hotels/radisson-blu-dubai-marina","The Radisson Blu Residence, Dubai Marina","Plot No. 392-260, Street K","Dubai","<MISSING>","73029","United Arab Emirates","DXBZS","+971 (4) 4355000","Hotel","25.0782928","55.14321","https://www.radissonhotels.com/en-us/destination","<MISSING>","<MISSING>"
"https://www.radissonhotels.com/en-us/hotels/radisson-blu-dubai-waterfront","Radisson Blu Hotel, Dubai Waterfront","P.O. Box 16021 Marasi Drive, Business Bay","Dubai","<MISSING>","<MISSING>","United Arab Emirates","DXBZW","+971 (0) 4 249 7800","Hotel","25.1864033","55.26801","https://www.radissonhotels.com/en-us/destination","<MISSING>","<MISSING>"
"https://www.radissonhotels.com/en-us/hotels/radisson-blu-dubai-canal","Radisson Blu Hotel, Dubai Canal View","Marasi Drive, Business Dubai PO Box 16021","Dubai","<MISSING>","<MISSING>","United Arab Emirates","DXBZY","+971 (0)4 875 3300","Hotel","25.19122","55.2905769","https://www.radissonhotels.com/en-us/destination","<MISSING>","<MISSING>"
"https://www.radissonhotels.com/en-us/hotels/radisson-blu-edinburgh","Radisson Blu Hotel, Edinburgh City Centre","80 High Street, The Royal Mile","Edinburgh","<MISSING>","EH1 1TH","United Kingdom","EDIZA","+44 131 557 9797","Hotel","55.9501953","-3.186926","https://www.radissonhotels.com/en-us/destination","<MISSING>","<MISSING>"
"https://www.radissonhotels.com/en-us/hotels/radisson-blu-buraidah","Radisson Blu Hotel, Buraidah","8792 Al Rayan","Buraidah","<MISSING>","52379-4359","Saudi Arabia","ELQZB","00966 1 6355 5554","Hotel","26.4053135","43.91314","https://www.radissonhotels.com/en-us/destination","<MISSING>","<MISSING>"
"https://www.radissonhotels.com/en-us/hotels/radisson-blu-east-midlands-airport","Radisson Blu Hotel, East Midlands Airport","Herald Way, Pegasus Business Park","Derby","<MISSING>","DE74 2TZ","United Kingdom","EMAZQ","+44 1509 670575","Hotel","52.82511","-1.308092","https://www.radissonhotels.com/en-us/destination","<MISSING>","<MISSING>"
"https://www.radissonhotels.com/en-us/hotels/radisson-blu-erfurt","Radisson Blu Hotel, Erfurt","Juri-Gagarin-Ring 127","Erfurt","<MISSING>","99084","Germany","ERFZH","+49 361 55100","Hotel","50.97901","11.0365152","https://www.radissonhotels.com/en-us/destination","<MISSING>","<MISSING>"
"https://www.radissonhotels.com/en-us/hotels/radisson-blu-yerevan","Radisson Blu Hotel, Yerevan","2/2, Azatutyan Avenue","Yerevan","<MISSING>","37","Armenia","EVNZR","+374 10 21 99 00","Hotel","40.1970253","44.519","https://www.radissonhotels.com/en-us/destination","<MISSING>","<MISSING>"
"https://www.radissonhotels.com/en-us/test/test-property-page/overview","Radisson Blu Fake Hotel","00 Nothing Street","Zakopane","<MISSING>","<MISSING>","Poland","FAKEHOTEL","<","Hotel","0.0","0.0","https://www.radissonhotels.com/en-us/destination","<MISSING>","<MISSING>"
"https://www.radissonhotels.com/en-us/hotels/radisson-blu-resort-fiji-denarau-island","Radisson Blu Resort Fiji Denarau Island","Resort Drive","Denarau Island","<MISSING>","<MISSING>","Fiji","FIJDEN","+679 67 56677","Hotel","-17.7762318","177.367264","https://www.radissonhotels.com/en-us/destination","<MISSING>","<MISSING>"
"https://www.radissonhotels.com/en-us/hotels/radisson-blu-karlsruhe","Radisson Blu Hotel, Karlsruhe","Am Hardtwald 10","Karlsruhe-Ettlingen","<MISSING>","76275","Germany","FKBZH","+49 7243 3800","Hotel","48.9576721","8.378875","https://www.radissonhotels.com/en-us/destination","<MISSING>","<MISSING>"
"https://www.radissonhotels.com/en-us/hotels/radisson-blu-florence","Radisson Blu Hotel, Florence","Via Giovanni Agnelli, 33","Florence","<MISSING>","50126","Italy","FLRZA","+39 055 64901","Hotel","43.743927","11.2823668","https://www.radissonhotels.com/en-us/destination","<MISSING>","<MISSING>"
"https://www.radissonhotels.com/en-us/hotels/radisson-blu-freetown","Radisson Blu Mammy Yoko Hotel, Freetown","17 Lumley Beach Road","Freetown","<MISSING>","<MISSING>","Sierra Leone","FNAZR","+232 79454000","Hotel","8.492141","-13.28979","https://www.radissonhotels.com/en-us/destination","<MISSING>","<MISSING>"
"https://www.radissonhotels.com/en-us/hotels/radisson-blu-frankfurt","Radisson Blu Hotel, Frankfurt","Franklinstrasse 65","Frankfurt","<MISSING>","D-60486","Germany","FRAZR","+49 69 770 1550","Hotel","50.1173058","8.627089","https://www.radissonhotels.com/en-us/destination","<MISSING>","<MISSING>"
"https://www.radissonhotels.com/en-us/hotels/radisson-blu-edwardian-london-berkshire","Radisson Blu Edwardian Berkshire Hotel, London","350 Oxford Street","London","<MISSING>","W1C 1BY","United Kingdom","GBBERKSH","+ 44 (0) 207 629 7474","Hotel","51.51468","-0.148165","https://www.radissonhotels.com/en-us/destination","<MISSING>","<MISSING>"
"https://www.radissonhotels.com/en-us/hotels/radisson-blu-edwardian-london-new-providence-wharf","Radisson Blu Edwardian New Providence Wharf Hotel, London","5 Fairmont Avenue Canary Wharf London","London","<MISSING>","E14 9JB","United Kingdom","GBCANARY","+ 44 (0)207 987 2050","Hotel","51.5065651","-0.004592","https://www.radissonhotels.com/en-us/destination","<MISSING>","<MISSING>"
"https://www.radissonhotels.com/en-us/hotels/radisson-blu-edwardian-london-heathrow","Radisson Blu Edwardian Heathrow Hotel & Conference Centre, London","140 Bath Road, Heathrow, London","London","<MISSING>","UB3 5AW","United Kingdom","GBEDWAIR","+ 44 (0)20 8759 6311","Hotel","51.48153","-0.441432","https://www.radissonhotels.com/en-us/destination","<MISSING>","<MISSING>"
"https://www.radissonhotels.com/en-us/hotels/radisson-blu-edwardian-london-grafton","Radisson Blu Edwardian Grafton Hotel, London","130 Tottenham Court Road London","London","<MISSING>","W1T 5AY","United Kingdom","GBGRAFTO","+44 (0)20 7388 4131","Hotel","51.5242233","-0.137683","https://www.radissonhotels.com/en-us/destination","<MISSING>","<MISSING>"
"https://www.radissonhotels.com/en-us/hotels/radisson-blu-edwardian-london-hampshire","Radisson Blu Edwardian Hampshire Hotel, London","31-36 Leicester Square London","London","<MISSING>","WC2H 7LH","United Kingdom","GBHAMPSH","+ 44 (0)207 839 9399","Hotel","51.51","-0.129883","https://www.radissonhotels.com/en-us/destination","<MISSING>","<MISSING>"
"https://www.radissonhotels.com/en-us/hotels/radisson-blu-edwardian-london-kenilworth","Radisson Blu Edwardian Kenilworth Hotel, London","97 Great Russell Street Bloomsbury London","London","<MISSING>","WC1B 3LB","United Kingdom","GBKENILW","+ 44 (0)207 637 3477","Hotel","51.5178223","-0.128102","https://www.radissonhotels.com/en-us/destination","<MISSING>","<MISSING>"
"https://www.radissonhotels.com/en-us/hotels/radisson-blu-edwardian-london-bloomsbury-street","Radisson Blu Edwardian Bloomsbury Street Hotel, London","9-13 Bloomsbury Street, Bloomsbury","London","<MISSING>","WC1B 3QD","United Kingdom","GBMARLBO","+ 44 (0)20 7636 5601","Hotel","51.5176","-0.1277","https://www.radissonhotels.com/en-us/destination","<MISSING>","<MISSING>"
"https://www.radissonhotels.com/en-us/hotels/radisson-blu-edwardian-london-mercer-street","Radisson Blu Edwardian Mercer Street Hotel, London","20 Mercer Street","London","<MISSING>","WC2H 9HD","United Kingdom","GBMOUNTB","+ 44 (0)20 7836 4300","Hotel","51.5140152","-0.127094","https://www.radissonhotels.com/en-us/destination","<MISSING>","<MISSING>"
"https://www.radissonhotels.com/en-us/hotels/radisson-blu-edwardian-london-sussex","Radisson Blu Edwardian Sussex Hotel, London","19-25 Granville Place London","London","<MISSING>","W1H 6PA","United Kingdom","GBSUSSEX","+44 (0) 20 7408 0130","Hotel","51.5143776","-0.155504","https://www.radissonhotels.com/en-us/destination","<MISSING>","<MISSING>"
"https://www.radissonhotels.com/en-us/hotels/radisson-blu-edwardian-london-vanderbilt","Radisson Blu Edwardian Vanderbilt Hotel, London","68-86 Cromwell Road London","London","<MISSING>","SW7 5BT","United Kingdom","GBVANDER","+ 44 (0)207 761 9000","Hotel","51.49519","-0.181865","https://www.radissonhotels.com/en-us/destination","<MISSING>","<MISSING>"
"https://www.radissonhotels.com/en-us/hotels/radisson-blu-gdansk","Radisson Blu Hotel, Gdansk","Dlugi Targ Street 19","Gdansk","<MISSING>","80828","Poland","GDNZH","+ 48 (58) 325 44 44","Hotel","54.3475723","18.65499","https://www.radissonhotels.com/en-us/destination","<MISSING>","<MISSING>"
"https://www.radissonhotels.com/en-us/hotels/radisson-blu-sopot","Radisson Blu Hotel, Sopot","Bitwy Pod Płowcami 54","Sopot","<MISSING>","81-731","Poland","GDNZR","+48 58 670 35 35","Hotel","54.4327927","18.5795574","https://www.radissonhotels.com/en-us/destination","<MISSING>","<MISSING>"
"https://www.radissonhotels.com/en-us/hotels/radisson-blu-resort-jizan","Radisson Blu Resort, Jizan","Makkah-Corniche Roundabout","Jizan","<MISSING>","69162","Saudi Arabia","GIZZR","+966 17 323 9200","Hotel","16.9291763","42.548584","https://www.radissonhotels.com/en-us/destination","<MISSING>","<MISSING>"
"https://www.radissonhotels.com/en-us/hotels/radisson-blu-glasgow","Radisson Blu Hotel, Glasgow","301 Argyle Street","Glasgow","<MISSING>","G2 8DL","United Kingdom","GLAZH","+44 141 2043333","Hotel","55.8584","-4.2603","https://www.radissonhotels.com/en-us/destination","<MISSING>","<MISSING>"
"https://www.radissonhotels.com/en-us/hotels/radisson-blu-gothenburg-scandinavia","Radisson Blu Scandinavia Hotel, Gothenburg","Sodra Hamngatan 59","Gothenburg","<MISSING>","S-401 24","Sweden","GOTZA","+46 31 7585000","Hotel","57.70711","11.97292","https://www.radissonhotels.com/en-us/destination","<MISSING>","<MISSING>"
"https://www.radissonhotels.com/en-us/hotels/radisson-blu-gothenburg-riverside","Radisson Blu Riverside Hotel, Gothenburg","Lindholmspiren 4","Gothenburg","<MISSING>","41756","Sweden","GOTZB","+46 (31) 383 40 00","Hotel","57.70798","11.9407415","https://www.radissonhotels.com/en-us/destination","<MISSING>","<MISSING>"
"https://www.radissonhotels.com/en-us/hotels/radisson-blu-athlone","Radisson Blu Hotel, Athlone","Northgate Street","Athlone","<MISSING>","<MISSING>","Ireland","GWYZA","+353 (90) 644 2600","Hotel","53.42471","-7.9416","https://www.radissonhotels.com/en-us/destination","<MISSING>","<MISSING>"
"https://www.radissonhotels.com/en-us/hotels/radisson-blu-hannover","Radisson Blu Hotel, Hannover","Expo-Plaza 5","Hannover","<MISSING>","30539","Germany","HAJZR","+49 511 383830","Hotel","52.32213","9.81446","https://www.radissonhotels.com/en-us/destination","<MISSING>","<MISSING>"
"https://www.radissonhotels.com/en-us/hotels/radisson-blu-hamburg","Radisson Blu Hotel, Hamburg","Marseiller Strasse 2","Hamburg","<MISSING>","D-20355","Germany","HAMZA","+49 40 35 020","Hotel","53.56112","9.98732","https://www.radissonhotels.com/en-us/destination","<MISSING>","<MISSING>"
"https://www.radissonhotels.com/en-us/hotels/radisson-blu-hamburg-airport","Radisson Blu Hotel, Hamburg Airport","Flughafenstrasse 1-3","Hamburg","<MISSING>","22335","Germany","HAMZQ","+49 40 300 3000","Hotel","53.6324","10.0077076","https://www.radissonhotels.com/en-us/destination","<MISSING>","<MISSING>"
"https://www.radissonhotels.com/en-us/hotels/radisson-blu-haugesund","Radisson Blu Hotel, Haugesund","Ystadveien 1","Haugesund","<MISSING>","5538","Norway","HAUZR","+47 52 861000","Hotel","59.38497","5.302611","https://www.radissonhotels.com/en-us/destination","<MISSING>","<MISSING>"
"https://www.radissonhotels.com/en-us/hotels/radisson-blu-helsinki-seaside","Radisson Blu Seaside Hotel, Helsinki","Ruoholahdenranta 3","Helsinki","<MISSING>","00180","Finland","HELZB","+358 20 1234 707","Hotel","60.16189","24.9243412","https://www.radissonhotels.com/en-us/destination","<MISSING>","<MISSING>"
"https://www.radissonhotels.com/en-us/hotels/radisson-blu-helsinki-royal","Radisson Blu Royal Hotel, Helsinki","Runeberginkatu 2","Helsinki","<MISSING>","00100","Finland","HELZH","+358 20 1234 701","Hotel","60.16795","24.9291363","https://www.radissonhotels.com/en-us/destination","<MISSING>","<MISSING>"
"https://www.radissonhotels.com/en-us/hotels/radisson-blu-helsinki-aleksanteri","Radisson Blu Aleksanteri Hotel, Helsinki","Albertinkatu 34","Helsinki","<MISSING>","00180","Finland","HELZI","+358 20 1234 643","Hotel","60.16419","24.93321","https://www.radissonhotels.com/en-us/destination","<MISSING>","<MISSING>"
"https://www.radissonhotels.com/en-us/hotels/radisson-blu-helsinki","Radisson Blu Plaza Hotel, Helsinki","Mikonkatu 23","Helsinki","<MISSING>","00100","Finland","HELZR","+358 20 1234 703","Hotel","60.1725","24.9452","https://www.radissonhotels.com/en-us/destination","<MISSING>","<MISSING>"
"https://www.radissonhotels.com/en-us/hotels/radisson-blu-espoo","Radisson Blu Hotel, Espoo","Otaranta 2","Espoo","<MISSING>","2150","Finland","HELZS","+358 20 1234 705","Hotel","60.1839638","24.8363876","https://www.radissonhotels.com/en-us/destination","<MISSING>","<MISSING>"
"https://www.radissonhotels.com/en-us/hotels/radisson-blu-resort-milatos","Radisson Blu Beach Resort, Milatos Crete","Milatos Lasithiou Crete","Milatos","<MISSING>","72400","Greece","HERZR","+30 28410 65000","Hotel","35.3216858","25.5493774","https://www.radissonhotels.com/en-us/destination","<MISSING>","<MISSING>"
"https://www.radissonhotels.com/en-us/hotels/radisson-blu-resort-el-quseir","Radisson Blu Resort, El Quseir","El Quseir Safaga Road","El Quseir","<MISSING>","<MISSING>","Egypt","HRGZR","+20 65 335 0260","Hotel","26.1464138","34.25769","https://www.radissonhotels.com/en-us/destination","<MISSING>","<MISSING>"
"https://www.radissonhotels.com/en-us/hotels/radisson-blu-bali-uluwatu","Radisson Blu Bali Uluwatu","Jl. Pemutih Bali Uluwatu","Bali","<MISSING>","80364","Indonesia","IDNRDBU","+62 361 3008888","Hotel","-8.809044","115.110428","https://www.radissonhotels.com/en-us/destination","<MISSING>","<MISSING>"
"https://www.radissonhotels.com/en-us/hotels/radisson-blu-kyiv","Radisson Blu Hotel, Kyiv City Centre","Yaroslaviv Val Street 22","Kyiv","<MISSING>","1034","Ukraine","IEVZH","+380 44 492 2200","Hotel","50.4516258","30.5094833","https://www.radissonhotels.com/en-us/destination","<MISSING>","<MISSING>"
"https://www.radissonhotels.com/en-us/hotels/radisson-blu-kyiv-podil","Radisson Blu Hotel, Kyiv Podil City Centre","17-19 Bratskaya Street, Podil","Kyiv","<MISSING>","4070","Ukraine","IEVZP","+38 044 393 1373","Hotel","50.4634857","30.5209541","https://www.radissonhotels.com/en-us/destination","<MISSING>","<MISSING>"
"https://www.radissonhotels.com/en-us/hotels/radisson-blu-resort-bukovel","Radisson Blu Resort, Bukovel","220 Schivki Street, Yaremche, Ivano-Frankivs&#039;ka oblast","Bukovel","<MISSING>","76019","Ukraine","IFOZR","+380 (343) 437900","Hotel","48.3628464","24.4141273","https://www.radissonhotels.com/en-us/destination","<MISSING>","<MISSING>"
"https://www.radissonhotels.com/en-us/hotels/radisson-blu-ahmedabad","Radisson Blu Hotel Ahmedabad","Near Panchvati Cross Roads","Ahmedabad","<MISSING>","380006","India","INDAHAD","+91 79 40501234","Hotel","23.0235271","72.55699","https://www.radissonhotels.com/en-us/destination","<MISSING>","<MISSING>"
"https://www.radissonhotels.com/en-us/hotels/radisson-blu-resort-alibaug-spa","Radisson Blu Resort & Spa - Alibaug, India","Alibaug 402209, Raigad","Alibaug","<MISSING>","402209","India","INDALIB","1 800 1080 333","Hotel","18.6650333","72.88957","https://www.radissonhotels.com/en-us/destination","<MISSING>","<MISSING>"
"https://www.radissonhotels.com/en-us/hotels/radisson-blu-amritsar","Radisson Blu Hotel Amritsar","Ajnala Road (Airport Road), 8th Mile Stone","Amritsar","<MISSING>","143001","India","INDAMRI","1 800 1080 333","Hotel","31.7055569","74.81861","https://www.radissonhotels.com/en-us/destination","<MISSING>","<MISSING>"
"https://www.radissonhotels.com/en-us/hotels/radisson-blu-bengaluru-outer-ring-road","Radisson Blu Bengaluru Outer Ring Road","90/4 Outer Ring Road, Marathahalli Village","Bengaluru","<MISSING>","560037","India","INDBORR","1 800 1080 333","Hotel","12.9502487","77.69904","https://www.radissonhotels.com/en-us/destination","<MISSING>","<MISSING>"
"https://www.radissonhotels.com/en-us/hotels/radisson-blu-new-delhi-airport","Radisson Blu Plaza Delhi Airport","Near Mahipalpur Extension Nh 8","New Delhi","<MISSING>","110037","India","INDDELHI","1 800 1080 333","Hotel","28.5437069","77.11972","https://www.radissonhotels.com/en-us/destination","<MISSING>","<MISSING>"
"https://www.radissonhotels.com/en-us/hotels/radisson-blu-resort-dharamshala","Radisson Blu Resort Dharamshala","Village Kandi, PO Khanyara, Tehsil Dharamshala, District Kangra","Dharamshala","<MISSING>","176215","India","INDDHAR","+91 1892 350350","Hotel","32.2143745","76.34376","https://www.radissonhotels.com/en-us/destination","<MISSING>","<MISSING>"
"https://www.radissonhotels.com/en-us/hotels/radisson-blu-faridabad","Radisson Blu Faridabad","Sector 20-B, Mathura Road","Faridabad","<MISSING>","121001","India","INDFRDB","1 800 1080 333","Hotel","28.3857841","77.31225","https://www.radissonhotels.com/en-us/destination","<MISSING>","<MISSING>"
"https://www.radissonhotels.com/en-us/hotels/radisson-blu-kaushambi-delhi-ncr","Radisson Blu Kaushambi Delhi NCR","H-3, Sector14","Ghaziabad","<MISSING>","201010","India","INDGHZB","+91 1204736200","Hotel","28.6370163","77.3278046","https://www.radissonhotels.com/en-us/destination","<MISSING>","<MISSING>"
"https://www.radissonhotels.com/en-us/hotels/radisson-blu-gorakhpur","Radisson Blu Gorakhpur","Airport Road Mohaddipur Crossing","Gorakhpur","<MISSING>","273008","India","INDGRKP","1 800 1080 333","Hotel","26.7497272","83.39812","https://www.radissonhotels.com/en-us/destination","<MISSING>","<MISSING>"
"https://www.radissonhotels.com/en-us/hotels/radisson-blu-guwahati","Radisson Blu Hotel Guwahati","National Highway 37","Guwahati","<MISSING>","781033","India","INDGWHT","1 800 1080 333","Hotel","26.1420479","91.67734","https://www.radissonhotels.com/en-us/destination","<MISSING>","<MISSING>"
"https://www.radissonhotels.com/en-us/hotels/radisson-blu-hyderabad-banjara-hills","Radisson Blu Plaza Hotel Hyderabad Banjara Hills","8-2-409 Road No. 6, Banjara Hills","Hyderabad","<MISSING>","500034","India","INDHDBH","+91 40 67331133","Hotel","17.42234","78.44157","https://www.radissonhotels.com/en-us/destination","<MISSING>","<MISSING>"
"https://www.radissonhotels.com/en-us/hotels/radisson-blu-haridwar","Radisson Blu Hotel Haridwar","Plot No. C-1, Sector 12, SIDCUL","Haridwar","<MISSING>","249403","India","INDHRID","+91 1334 665400","Hotel","29.9466362","78.07593","https://www.radissonhotels.com/en-us/destination","<MISSING>","<MISSING>"
"https://www.radissonhotels.com/en-us/hotels/radisson-blu-indore","Radisson Blu Hotel Indore","12, Scheme No 94 C","Indore","<MISSING>","452010","India","INDINDR","1 800 1080 333","Hotel","22.7501717","75.90276","https://www.radissonhotels.com/en-us/destination","<MISSING>","<MISSING>"
"https://www.radissonhotels.com/en-us/hotels/radisson-blu-jammu","Radisson Blu Jammu","Radisson Square","Jammu &amp; Kashmir","<MISSING>","180006","India","INDJAMM","+91 191 2490400","Hotel","32.71605","74.89008","https://www.radissonhotels.com/en-us/destination","<MISSING>","<MISSING>"
"https://www.radissonhotels.com/en-us/hotels/radisson-blu-ludhiana","Radisson Blu Hotel Ludhiana","MBD Neopolis, Ferozepur Rd","Ludhiana","<MISSING>","141012","India","INDLDHN","1 800 1080 333","Hotel","30.8829613","75.7813339","https://www.radissonhotels.com/en-us/destination","<MISSING>","<MISSING>"
"https://www.radissonhotels.com/en-us/hotels/radisson-blu-chennai","Radisson Blu Hotel Chennai","531 Gst Road, St.Thomas Mount","Chennai","<MISSING>","600016","India","INDMA","+91 44 22310101","Hotel","12.9940968","80.18756","https://www.radissonhotels.com/en-us/destination","<MISSING>","<MISSING>"
"https://www.radissonhotels.com/en-us/hotels/radisson-blu-nagpur","Radisson Blu Hotel Nagpur","7 Wardha Road","Nagpur","<MISSING>","440015","India","INDNAGP","1 800 1080 333","Hotel","21.09089","79.06534","https://www.radissonhotels.com/en-us/destination","<MISSING>","<MISSING>"
"https://www.radissonhotels.com/en-us/hotels/radisson-blu-marina-new-delhi-connaught-place","Radisson Blu Marina Hotel Connaught Place","G-59 Connaught Circus","New Delhi","<MISSING>","110001","India","INDNEDL","+91 11 4690 9090","Hotel","28.6340237","77.217186","https://www.radissonhotels.com/en-us/destination","<MISSING>","<MISSING>"
"https://www.radissonhotels.com/en-us/hotels/radisson-blu-noida","Radisson Blu MBD Hotel Noida","L-2, Sector 18","Noida","<MISSING>","201-301","India","INDNOIDA","1 800 1080 333","Hotel","28.5683689","77.32264","https://www.radissonhotels.com/en-us/destination","<MISSING>","<MISSING>"
"https://www.radissonhotels.com/en-us/hotels/radisson-blu-kharadi-pune","Radisson Blu Hotel Pune Kharadi","Nagar Bypass Road, Kharadi","Pune","<MISSING>","411014","India","INDPUKH","+91 20 27060606","Hotel","18.553421","73.93797","https://www.radissonhotels.com/en-us/destination","<MISSING>","<MISSING>"
"https://www.radissonhotels.com/en-us/hotels/radisson-blu-ranchi","Radisson Blu Hotel Ranchi","Main Road","Ranchi","<MISSING>","834001","India","INDRACH","+91 651 6602222","Hotel","23.3516","85.32441","https://www.radissonhotels.com/en-us/destination","<MISSING>","<MISSING>"
"https://www.radissonhotels.com/en-us/hotels/radisson-blu-new-delhi-dwarka","Radisson Blu New Delhi Dwarka","Plot 4, Dwarka City Centre","New Delhi","<MISSING>","110075","India","INDRBDW","1 800 1080 333","Hotel","28.5963917","77.03624","https://www.radissonhotels.com/en-us/destination","<MISSING>","<MISSING>"
"https://www.radissonhotels.com/en-us/hotels/radisson-blu-hinjawadi-pune","Radisson Blu Pune Hinjawadi","136/1, Behind Mercedes Benz International School","Pune","<MISSING>","411057","India","INDRBPH","+91 20 66939000","Hotel","18.58389","73.73907","https://www.radissonhotels.com/en-us/destination","<MISSING>","<MISSING>"
"https://www.radissonhotels.com/en-us/hotels/radisson-blu-resort-visakhapatnam","Radisson Blu Resort Visakhapatnam","Survey No: 106, Rushikonda Beach Road, Yendada","Visakhapatnam","<MISSING>","530045","India","INDRBRV","08 916 677 666","Hotel","17.7715664","83.37306","https://www.radissonhotels.com/en-us/destination","<MISSING>","<MISSING>"
"https://www.radissonhotels.com/en-us/hotels/radisson-blu-bengaluru-atria","Radisson Blu Atria Bengaluru","1 Palace Road","Bengaluru","<MISSING>","560001","India","INDRDAP","1 800 1080 333","Hotel","12.9798632","77.58627","https://www.radissonhotels.com/en-us/destination","<MISSING>","<MISSING>"
"https://www.radissonhotels.com/en-us/hotels/radisson-blu-kochi","Radisson Blu Kochi","Sahodaran Ayappan Road, Elamkulam Metro Junction","Kochi","<MISSING>","682 020","India","INDRDBK","1 800 1080 333","Hotel","9.967456","76.3072","https://www.radissonhotels.com/en-us/destination","<MISSING>","<MISSING>"
"https://www.radissonhotels.com/en-us/hotels/radisson-blu-chennai-city-centre","Radisson Blu Hotel Chennai City Centre","Commander in Chief Road","Chennai","<MISSING>","600008","India","INDRDCN","1 800 1080 333","Hotel","13.0670881","80.25576","https://www.radissonhotels.com/en-us/destination","<MISSING>","<MISSING>"
"https://www.radissonhotels.com/en-us/hotels/radisson-blu-resort-goa-cavelossim-beach","Radisson Blu Resort Goa Cavelossim Beach","Cavelossim Beach","Goa","<MISSING>","403001","India","INDRDGC","+91 832 6726666","Hotel","15.1758461","73.94708","https://www.radissonhotels.com/en-us/destination","<MISSING>","<MISSING>"
"https://www.radissonhotels.com/en-us/hotels/radisson-blu-greater-noida","Radisson Blu Hotel Greater Noida","C-8, Site-Iv, 2nd Cross Avenue Road","Greater Noida","<MISSING>","201306","India","INDRDGN","+91 120 4517777","Hotel","28.4499645","77.5281754","https://www.radissonhotels.com/en-us/destination","<MISSING>","<MISSING>"
"https://www.radissonhotels.com/en-us/hotels/radisson-blu-jaipur","Radisson Blu Jaipur","Plots No. 5 and 6 Airport Plaza","Jaipur","<MISSING>","302018","India","INDRDJA","+91 141 6698888","Hotel","26.84257","75.79414","https://www.radissonhotels.com/en-us/destination","<MISSING>","<MISSING>"
"https://www.radissonhotels.com/en-us/hotels/radisson-blu-resort-karjat-spa","Radisson Blu Resort & Spa Karjat","Survey No - 12/6-7, 10/1A, 9/2","Karjat","<MISSING>","401201","India","INDRDKJ","+91 225 0646646","Hotel","18.8736477","73.363266","https://www.radissonhotels.com/en-us/destination","<MISSING>","<MISSING>"
"https://www.radissonhotels.com/en-us/hotels/radisson-blu-new-delhi-paschim-vihar","Radisson Blu Hotel New Delhi Paschim Vihar","Outer Ring Road, Paschim Vihar","New Delhi","<MISSING>","110087","India","INDRDPV","1 800 1080 333","Hotel","28.66729","77.09128","https://www.radissonhotels.com/en-us/destination","<MISSING>","<MISSING>"
"https://www.radissonhotels.com/en-us/hotels/radisson-blu-resort-mamallapuram-temple-bay","Radisson Blu Resort Temple Bay Mamallapuram","57 Kovalam Road","Mamallapuram","<MISSING>","603104","India","INDRDTM","1 800 1080 333","Hotel","12.623745","80.19469","https://www.radissonhotels.com/en-us/destination","<MISSING>","<MISSING>"
"https://www.radissonhotels.com/en-us/hotels/radisson-blu-resort-udaipur-spa","Radisson Blu Udaipur Palace Resort and Spa","B-1 Ambamata Scheme","Udaipur","<MISSING>","313001","India","INDRDUP","+91 294 6650000","Hotel","24.5900688","73.66754","https://www.radissonhotels.com/en-us/destination","<MISSING>","<MISSING>"
"https://www.radissonhotels.com/en-us/hotels/radisson-blu-kaushambi-ghaziabad","Radisson Blu Towers Kaushambi Delhi NCR","CK- II, Sector 14, Kaushambi","Ghaziabad","<MISSING>","201010","India","INDRKSB","1 800 1080 333","Hotel","28.6393948","77.3266449","https://www.radissonhotels.com/en-us/destination","<MISSING>","<MISSING>"
"https://www.radissonhotels.com/en-us/hotels/radisson-blu-mumbai-airport","Radisson Blu Mumbai International Airport","Marol Maroshi Road near Marol Metro Station, Andheri East","Mumbai","<MISSING>","400059","India","INDRMIA","1 800 1080 333","Hotel","19.1102943","72.87887","https://www.radissonhotels.com/en-us/destination","<MISSING>","<MISSING>"
"https://www.radissonhotels.com/en-us/hotels/radisson-blu-mysore","Radisson Blu Plaza Hotel Mysore","1 MG Road","Mysore","<MISSING>","570 010","India","INDRPMS","1 800 1080 333","Hotel","12.2979746","76.66516","https://www.radissonhotels.com/en-us/destination","<MISSING>","<MISSING>"
"https://www.radissonhotels.com/en-us/hotels/radisson-blu-rudrapur","Radisson Blu Hotel Rudrapur","Plot No. A, IIE Pantnagar","Rudrapur","<MISSING>","263153","India","INDRUDR","+91 5944 259500","Hotel","29.00022","79.39944","https://www.radissonhotels.com/en-us/destination","<MISSING>","<MISSING>"
"https://www.radissonhotels.com/en-us/hotels/radisson-blu-istanbul-ottomare","Radisson Blu Hotel Istanbul Ottomare","Kazlicesme Mh. Abay Cd. No: 223","Istanbul","<MISSING>","34020","Turkey","ISTZA","+90 (212) 939 4500","Hotel","40.98168","28.8974514","https://www.radissonhotels.com/en-us/destination","<MISSING>","<MISSING>"
"https://www.radissonhotels.com/en-us/hotels/radisson-blu-istanbul-asia","Radisson Blu Hotel, Istanbul Asia","Ataturk Mahallesi","Istanbul","<MISSING>","34758","Turkey","ISTZB","+ 90 (216) 5791100","Hotel","40.99101","29.1159153","https://www.radissonhotels.com/en-us/destination","<MISSING>","<MISSING>"
"https://www.radissonhotels.com/en-us/hotels/radisson-blu-vadistanbul","Radisson Blu Hotel, Vadistanbul","Ayazaga Mah. Azerbaycan Cad. 1A Apt. No. 3A","Istanbul","<MISSING>","34485","Turkey","ISTZC","+90 212 341 0000","Hotel","41.1088943","28.9864235","https://www.radissonhotels.com/en-us/destination","<MISSING>","<MISSING>"
"https://www.radissonhotels.com/en-us/hotels/radisson-blu-istanbul-pera","Radisson Blu Hotel, Istanbul Pera","Evliya Celebi Mah Refik Saydam","Istanbul","<MISSING>","34430","Turkey","ISTZG","+90 (212) 377 2500","Hotel","41.03041","28.97204","https://www.radissonhotels.com/en-us/destination","<MISSING>","<MISSING>"
"https://www.radissonhotels.com/en-us/hotels/radisson-blu-istanbul-bosphorus","Radisson Blu Bosphorus Hotel, Istanbul","Ciragan Cad 46, Ortakoy","Istanbul","<MISSING>","34349","Turkey","ISTZH","+90 212 310 1500","Hotel","41.0474548","29.0245266","https://www.radissonhotels.com/en-us/destination","<MISSING>","<MISSING>"
"https://www.radissonhotels.com/en-us/hotels/radisson-blu-istanbul-batisehir","Radisson Blu Residence, Istanbul Batisehir","Goztepe Mahallesi Batiesehir 1. Caddesi","Istanbul","<MISSING>","34214","Turkey","ISTZI","+90 2124013100","Hotel","41.06313","28.8414326","https://www.radissonhotels.com/en-us/destination","<MISSING>","<MISSING>"
"https://www.radissonhotels.com/en-us/hotels/radisson-blu-istanbul-sisli","Radisson Blu Hotel, Istanbul Sisli","19 Mayis Street No 2 Sisli","Istanbul","<MISSING>","34360","Turkey","ISTZS","+90 (212) 3750000","Hotel","41.0615578","28.98871","https://www.radissonhotels.com/en-us/destination","<MISSING>","<MISSING>"
"https://www.radissonhotels.com/en-us/hotels/radisson-blu-istanbul-tuzla-spa","Radisson Blu Hotel & Spa, Istanbul Tuzla","Camlibelde Sitesi Hasan","Istanbul","<MISSING>","34953","Turkey","ISTZU","+90 216 560 60 00","Hotel","40.8759651","29.3155346","https://www.radissonhotels.com/en-us/destination","<MISSING>","<MISSING>"
"https://www.radissonhotels.com/en-us/hotels/radisson-blu-resort-cesme-spa","Radisson Blu Resort & Spa, Cesme","Altinyunus Mah 3435 Sok No. 25","Çeşme","<MISSING>","35930","Turkey","IZMZC","+90 (232) 455 4500","Hotel","38.3160934","26.3453941","https://www.radissonhotels.com/en-us/destination","<MISSING>","<MISSING>"
"https://www.radissonhotels.com/en-us/hotels/radisson-blu-jeddah-al-salam","Radisson Blu Hotel, Jeddah Al Salam","Quraysh Road","Jeddah","<MISSING>","21573","Saudi Arabia","JEDZA","+966 12 608 9900","Hotel","21.5945721","39.14949","https://www.radissonhotels.com/en-us/destination","<MISSING>","<MISSING>"
"https://www.radissonhotels.com/en-us/hotels/radisson-blu-jeddah-corniche","Radisson Blu Hotel, Jeddah Corniche","Corniche Road, Ash Shati District","Jeddah","<MISSING>","21452","Saudi Arabia","JEDZC","+966 12 5110000","Hotel","21.6355228","39.1043739","https://www.radissonhotels.com/en-us/destination","<MISSING>","<MISSING>"
"https://www.radissonhotels.com/en-us/hotels/radisson-blu-jeddah","Radisson Blu Hotel, Jeddah","Medina Road, Po Box 8483","Jeddah","<MISSING>","21482","Saudi Arabia","JEDZH","+966 (12) 6521234","Hotel","21.5182362","39.1814423","https://www.radissonhotels.com/en-us/destination","<MISSING>","<MISSING>"
"https://www.radissonhotels.com/en-us/hotels/radisson-blu-plaza-jeddah","Radisson Blu Hotel, Jeddah Plaza","King Abdullah Road","Jeddah","<MISSING>","21332","Saudi Arabia","JEDZZ","+966 (12) 510 9876","Hotel","21.5112839","39.227375","https://www.radissonhotels.com/en-us/destination","<MISSING>","<MISSING>"
"https://www.radissonhotels.com/en-us/hotels/radisson-blu-jersey","Radisson Blu Waterfront Hotel, Jersey","Rue De L&#039;Etau, St Helier","Jersey","<MISSING>","JE2 3WF","United Kingdom","JERZR","+44 1534 671 100","Hotel","49.1839523","-2.116816","https://www.radissonhotels.com/en-us/destination","<MISSING>","<MISSING>"
"https://www.radissonhotels.com/en-us/hotels/radisson-blu-helsingborg-metropol","Radisson Blu Metropol Hotel, Helsingborg","Carl Krooks gata 16","Helsingborg","<MISSING>","252 25","Sweden","JHEZD","+46 42 6237900","Hotel","56.04063","12.6999378","https://www.radissonhotels.com/en-us/destination","<MISSING>","<MISSING>"
"https://www.radissonhotels.com/en-us/hotels/radisson-blu-johannesburg-sandton-gautrain","Radisson Blu Gautrain Hotel, Sandton Johannesburg","Corner Of Rivonia Rd And West","Johannesburg","<MISSING>","2196","South Africa","JNBZH","+27 (11) 286 1000","Hotel","-26.10787","28.0588245","https://www.radissonhotels.com/en-us/destination","<MISSING>","<MISSING>"
"https://www.radissonhotels.com/en-us/hotels/radisson-blu-johannesburg-sandton","Radisson Blu Hotel Sandton, Johannesburg","Corner Rivonia Road &amp; Daisy Street Sandton","Johannesburg","<MISSING>","2196","South Africa","JNBZS","+27 (11) 245 8000","Hotel","-26.10431","28.0615711","https://www.radissonhotels.com/en-us/destination","<MISSING>","<MISSING>"
"https://www.radissonhotels.com/en-us/hotels/radisson-blu-zaffron-resort-santorini","Radisson Blu Zaffron Resort, Santorini","Apollonos &amp; Makedonias Str","Santorini","<MISSING>","84700","Greece","JTRZB","+ 0030 694 028 5851","Hotel","36.37731","25.4839268","https://www.radissonhotels.com/en-us/destination","<MISSING>","<MISSING>"
"https://www.radissonhotels.com/en-us/hotels/radisson-blu-sakarya","Radisson Blu Hotel, Sakarya","Hanliköy Mah. Eskişehir cad. No:70","Sakarya","<MISSING>","54580","Turkey","KCOZA","+90 264 289 00 00","Hotel","40.7225952","30.3804874","https://www.radissonhotels.com/en-us/destination","<MISSING>","<MISSING>"
"https://www.radissonhotels.com/en-us/hotels/radisson-blu-kaliningrad","Radisson Blu Hotel, Kaliningrad","10 Pobedy Square","Kaliningrad","<MISSING>","236010","Russian Federation","KGDZH","+ 7 (401) 259 3344","Hotel","54.7199326","20.5040512","https://www.radissonhotels.com/en-us/destination","<MISSING>","<MISSING>"
"https://www.radissonhotels.com/en-us/hotels/radisson-blu-convention-kigali","Radisson Blu Hotel & Convention Centre, Kigali","Kigali Roundabout","Kigali","<MISSING>","<MISSING>","Rwanda","KGLZH","​+250 252252252","Hotel","-1.95465","30.09275","https://www.radissonhotels.com/en-us/destination","<MISSING>","<MISSING>"
"https://www.radissonhotels.com/en-us/hotels/radisson-blu-chisinau-leogrand","Radisson Blu Leogrand Hotel, Chisinau","77 Mitropolit Varlaam","Chisinau","<MISSING>","MD 2012","Moldova","KIVZL","+373 (22) 201201","Hotel","47.0243378","28.83676","https://www.radissonhotels.com/en-us/destination","<MISSING>","<MISSING>"
"https://www.radissonhotels.com/en-us/hotels/radisson-blu-klaipeda","Radisson Blu Hotel, Klaipeda","Sauliu Street 28","Klaipeda","<MISSING>","LT-92231","Lithuania","KLJZH","+370 46 490 800","Hotel","55.7164345","21.1306553","https://www.radissonhotels.com/en-us/destination","<MISSING>","<MISSING>"
"https://www.radissonhotels.com/en-us/hotels/radisson-blu-krakow","Radisson Blu Hotel, Krakow","Straszewskiego St. 17","Krakow","<MISSING>","31-101","Poland","KRKZH","+48 12 618 88 88","Hotel","50.0583153","19.93332","https://www.radissonhotels.com/en-us/destination","<MISSING>","<MISSING>"
"https://www.radissonhotels.com/en-us/hotels/radisson-blu-zakopane","Radisson Blu Hotel & Residences, Zakopane","Bulwary Slowackiego 1","Zakopane","<MISSING>","34-500","Poland","KRKZR","+48 18 532 55 55","Hotel","49.2926521","19.96611","https://www.radissonhotels.com/en-us/destination","<MISSING>","<MISSING>"
"https://www.radissonhotels.com/en-us/hotels/radisson-blu-kristiansand-caledonien","Radisson Blu Caledonien Hotel, Kristiansand","Vestre Strandgate 7","Kristiansand","<MISSING>","4610","Norway","KRSZR","+47 38112100","Hotel","58.1425438","7.994603","https://www.radissonhotels.com/en-us/destination","<MISSING>","<MISSING>"
"https://www.radissonhotels.com/en-us/hotels/radisson-blu-kuwait","Radisson Blu Hotel, Kuwait","Al Bida Al Tawoun Street, Salwa","Kuwait City","<MISSING>","13122","Kuwait","KWIZH","+965 2567 3000","Hotel","29.3016186","48.0867844","https://www.radissonhotels.com/en-us/destination","<MISSING>","<MISSING>"
"https://www.radissonhotels.com/en-us/hotels/radisson-blu-riga-daugava","Radisson Blu Daugava Hotel, Riga","24 Kugu Street","Riga","<MISSING>","LV-1048","Latvia","LATRIGA","+ (371) 6706 1111","Hotel","56.94403","24.0943165","https://www.radissonhotels.com/en-us/destination","<MISSING>","<MISSING>"
"https://www.radissonhotels.com/en-us/hotels/radisson-blu-leeds","Radisson Blu Hotel, Leeds City Centre","No. 1 The Light, The Headrow","Leeds","<MISSING>","LS1 8TL","United Kingdom","LBAZH","+44 113 236 6000","Hotel","53.80005","-1.546752","https://www.radissonhotels.com/en-us/destination","<MISSING>","<MISSING>"
